$GPGGA,080237,4609.5405,N,00108.9293,W,1,05,0.0,5.8,M,0.0,M,0.0,0045*4e
$GPGGA,080238,4609.5405,N,00108.9305,W,1,06,0.0,5.8,M,0.0,M,0.0,0043*4a
$GPGGA,080240,4609.5405,N,00108.9336,W,1,05,0.0,5.9,M,0.0,M,0.0,0042*46
$GPGGA,080241,4609.5403,N,00108.9355,W,1,05,0.0,6.0,M,0.0,M,0.0,0049*45
$GPGGA,080242,4609.5398,N,00108.9378,W,1,05,0.0,6.1,M,0.0,M,0.0,0061*47
$GPGGA,080243,4609.5396,N,00108.9397,W,1,06,0.0,6.1,M,0.0,M,0.0,0066*4d
$GPGGA,080244,4609.5396,N,00108.9414,W,1,05,0.0,6.2,M,0.0,M,0.0,0084*4a
$GPGGA,080245,4609.5391,N,00108.9436,W,1,05,0.0,6.3,M,0.0,M,0.0,0102*42
$GPGGA,080246,4609.5384,N,00108.9460,W,1,05,0.0,6.3,M,0.0,M,0.0,0138*4f
$GPGGA,080248,4609.5382,N,00108.9502,W,1,05,0.0,6.5,M,0.0,M,0.0,0147*4c
$GPGGA,080251,4609.5377,N,00108.9540,W,1,05,0.0,6.7,M,0.0,M,0.0,0152*4e
$GPGGA,080255,4609.5350,N,00108.9604,W,1,05,0.0,7.0,M,0.0,M,0.0,0156*4e
$GPGGA,080259,4609.5334,N,00108.9681,W,1,04,0.0,7.4,M,0.0,M,0.0,0157*49
$GPGGA,080303,4609.5309,N,00108.9747,W,1,05,0.0,7.7,M,0.0,M,0.0,0161*45
$GPGGA,080307,4609.5288,N,00108.9822,W,1,03,0.0,8.0,M,0.0,M,0.0,0165*4f
$GPGGA,080312,4609.5251,N,00108.9897,W,1,05,0.0,8.2,M,0.0,M,0.0,0167*47
$GPGGA,080317,4609.5217,N,00108.9974,W,1,05,0.0,8.4,M,0.0,M,0.0,0168*45
$GPGGA,080318,4609.5213,N,00108.9988,W,1,05,0.0,8.4,M,0.0,M,0.0,0169*4c
$GPGGA,080322,4609.5183,N,00109.0043,W,1,05,0.0,8.3,M,0.0,M,0.0,0171*47
$GPGGA,080327,4609.5142,N,00109.0120,W,1,05,0.0,7.9,M,0.0,M,0.0,0170*4f
$GPGGA,080333,4609.5096,N,00109.0212,W,1,05,0.0,7.3,M,0.0,M,0.0,0171*4b
$GPGGA,080338,4609.5061,N,00109.0285,W,1,06,0.0,6.8,M,0.0,M,0.0,0172*4c
$GPGGA,080343,4609.5041,N,00109.0368,W,1,05,0.0,6.2,M,0.0,M,0.0,0169*43
$GPGGA,080346,4609.5011,N,00109.0411,W,1,05,0.0,5.6,M,0.0,M,0.0,0169*4d
$GPGGA,080349,4609.4979,N,00109.0449,W,1,05,0.0,5.2,M,0.0,M,0.0,0169*4d
$GPGGA,080355,4609.4938,N,00109.0528,W,1,04,0.0,4.8,M,0.0,M,0.0,0168*48
$GPGGA,080400,4609.4892,N,00109.0584,W,1,04,0.0,4.8,M,0.0,M,0.0,0168*48
$GPGGA,080404,4609.4865,N,00109.0639,W,1,03,0.0,4.7,M,0.0,M,0.0,0168*49
$GPGGA,080408,4609.4867,N,00109.0705,W,1,05,0.0,4.9,M,0.0,M,0.0,0167*4e
$GPGGA,080414,4609.4869,N,00109.0775,W,1,05,0.0,5.0,M,0.0,M,0.0,0167*42
$GPGGA,080421,4609.4878,N,00109.0842,W,1,05,0.0,5.2,M,0.0,M,0.0,0167*4d
$GPGGA,080430,4609.4883,N,00109.0939,W,1,07,0.0,5.5,M,0.0,M,0.0,0167*41
$GPGGA,080435,4609.4878,N,00109.1009,W,1,07,0.0,5.5,M,0.0,M,0.0,0166*4a
$GPGGA,080436,4609.4876,N,00109.1020,W,1,05,0.0,5.5,M,0.0,M,0.0,0166*4e
$GPGGA,080439,4609.4874,N,00109.1050,W,1,05,0.0,5.5,M,0.0,M,0.0,0161*43
$GPGGA,080441,4609.4874,N,00109.1076,W,1,05,0.0,5.5,M,0.0,M,0.0,0148*43
$GPGGA,080444,4609.4869,N,00109.1112,W,1,05,0.0,5.5,M,0.0,M,0.0,0126*41
$GPGGA,080445,4609.4869,N,00109.1126,W,1,05,0.0,5.5,M,0.0,M,0.0,0127*46
$GPGGA,080446,4609.4869,N,00109.1140,W,1,05,0.0,5.5,M,0.0,M,0.0,0136*45
$GPGGA,080447,4609.4872,N,00109.1157,W,1,05,0.0,5.5,M,0.0,M,0.0,0138*46
$GPGGA,080451,4609.4883,N,00109.1230,W,1,07,0.0,5.7,M,0.0,M,0.0,0154*47
$GPGGA,080452,4609.4888,N,00109.1250,W,1,05,0.0,5.8,M,0.0,M,0.0,0154*44
$GPGGA,080454,4609.4890,N,00109.1280,W,1,05,0.0,5.9,M,0.0,M,0.0,0154*47
$GPGGA,080459,4609.4897,N,00109.1367,W,1,05,0.0,6.0,M,0.0,M,0.0,0160*48
$GPGGA,080500,4609.4894,N,00109.1381,W,1,05,0.0,6.0,M,0.0,M,0.0,0161*4f
$GPGGA,080505,4609.4892,N,00109.1466,W,1,04,0.0,6.0,M,0.0,M,0.0,0165*47
$GPGGA,080511,4609.4894,N,00109.1553,W,1,05,0.0,6.3,M,0.0,M,0.0,0167*43
$GPGGA,080512,4609.4894,N,00109.1566,W,1,05,0.0,6.3,M,0.0,M,0.0,0166*47
$GPGGA,080518,4609.4892,N,00109.1660,W,1,05,0.0,6.7,M,0.0,M,0.0,0165*49
$GPGGA,080524,4609.4869,N,00109.1765,W,1,05,0.0,6.7,M,0.0,M,0.0,0167*44
$GPGGA,080528,4609.4860,N,00109.1837,W,1,05,0.0,6.9,M,0.0,M,0.0,0171*40
$GPGGA,080534,4609.4844,N,00109.1950,W,1,05,0.0,7.2,M,0.0,M,0.0,0169*48
$GPGGA,080536,4609.4839,N,00109.1987,W,1,06,0.0,7.3,M,0.0,M,0.0,0168*49
$GPGGA,080542,4609.4833,N,00109.2103,W,1,05,0.0,7.9,M,0.0,M,0.0,0171*46
$GPGGA,080548,4609.4823,N,00109.2226,W,1,05,0.0,8.6,M,0.0,M,0.0,0170*48
$GPGGA,080553,4609.4819,N,00109.2325,W,1,05,0.0,9.2,M,0.0,M,0.0,0171*4d
$GPGGA,080559,4609.4769,N,00109.2419,W,1,05,0.0,9.5,M,0.0,M,0.0,0170*41
$GPGGA,080602,4609.4757,N,00109.2471,W,1,05,0.0,9.8,M,0.0,M,0.0,0169*4a
$GPGGA,080607,4609.4755,N,00109.2572,W,1,05,0.0,10.0,M,0.0,M,0.0,0169*7f
$GPGGA,080611,4609.4730,N,00109.2650,W,1,05,0.0,10.0,M,0.0,M,0.0,0170*70
$GPGGA,080615,4609.4704,N,00109.2731,W,1,04,0.0,10.0,M,0.0,M,0.0,0169*7c
$GPGGA,080616,4609.4700,N,00109.2746,W,1,05,0.0,10.0,M,0.0,M,0.0,0169*7a
$GPGGA,080622,4609.4684,N,00109.2859,W,1,06,0.0,10.1,M,0.0,M,0.0,0168*72
$GPGGA,080625,4609.4679,N,00109.2915,W,1,05,0.0,10.2,M,0.0,M,0.0,0168*7e
$GPGGA,080630,4609.4686,N,00109.3020,W,1,05,0.0,10.2,M,0.0,M,0.0,0166*7a
$GPGGA,080634,4609.4691,N,00109.3097,W,1,05,0.0,10.0,M,0.0,M,0.0,0167*77
$GPGGA,080641,4609.4720,N,00109.3240,W,1,03,0.0,9.6,M,0.0,M,0.0,0168*41
$GPGGA,080643,4609.4727,N,00109.3277,W,1,07,0.0,9.5,M,0.0,M,0.0,0168*47
$GPGGA,080648,4609.4755,N,00109.3364,W,1,07,0.0,9.3,M,0.0,M,0.0,0167*43
$GPGGA,080653,4609.4785,N,00109.3465,W,1,05,0.0,9.1,M,0.0,M,0.0,0166*43
$GPGGA,080659,4609.4826,N,00109.3577,W,1,05,0.0,8.8,M,0.0,M,0.0,0167*44
$GPGGA,080704,4609.4855,N,00109.3659,W,1,05,0.0,8.7,M,0.0,M,0.0,0167*49
$GPGGA,080706,4609.4867,N,00109.3698,W,1,04,0.0,8.6,M,0.0,M,0.0,0168*48
$GPGGA,080710,4609.4881,N,00109.3773,W,1,03,0.0,8.5,M,0.0,M,0.0,0168*47
$GPGGA,080715,4609.4908,N,00109.3873,W,1,05,0.0,8.3,M,0.0,M,0.0,0168*4d
$GPGGA,080719,4609.4942,N,00109.3955,W,1,05,0.0,8.1,M,0.0,M,0.0,0168*48
$GPGGA,080724,4609.4963,N,00109.4056,W,1,05,0.0,7.9,M,0.0,M,0.0,0167*40
$GPGGA,080728,4609.4975,N,00109.4140,W,1,05,0.0,7.7,M,0.0,M,0.0,0167*43
$GPGGA,080733,4609.4988,N,00109.4241,W,1,05,0.0,7.5,M,0.0,M,0.0,0167*4b
$GPGGA,080737,4609.4995,N,00109.4322,W,1,05,0.0,7.4,M,0.0,M,0.0,0167*46
$GPGGA,080741,4609.5011,N,00109.4411,W,1,05,0.0,7.2,M,0.0,M,0.0,0167*42
$GPGGA,080745,4609.5023,N,00109.4485,W,1,05,0.0,7.0,M,0.0,M,0.0,0166*49
$GPGGA,080750,4609.5043,N,00109.4575,W,1,05,0.0,6.6,M,0.0,M,0.0,0165*41
$GPGGA,080756,4609.5057,N,00109.4687,W,1,05,0.0,6.1,M,0.0,M,0.0,0167*49
$GPGGA,080800,4609.5078,N,00109.4779,W,1,05,0.0,5.7,M,0.0,M,0.0,0168*42
$GPGGA,080806,4609.5096,N,00109.4903,W,1,05,0.0,5.2,M,0.0,M,0.0,0168*42
$GPGGA,080811,4609.5112,N,00109.4991,W,1,05,0.0,4.8,M,0.0,M,0.0,0168*49
$GPGGA,080815,4609.5128,N,00109.5069,W,1,05,0.0,4.7,M,0.0,M,0.0,0169*45
$GPGGA,080820,4609.5142,N,00109.5161,W,1,05,0.0,4.7,M,0.0,M,0.0,0168*47
$GPGGA,080825,4609.5155,N,00109.5274,W,1,05,0.0,4.7,M,0.0,M,0.0,0167*4c
$GPGGA,080829,4609.5164,N,00109.5357,W,1,05,0.0,4.7,M,0.0,M,0.0,0167*42
$GPGGA,080833,4609.5176,N,00109.5444,W,1,06,0.0,4.6,M,0.0,M,0.0,0166*4c
$GPGGA,080834,4609.5176,N,00109.5465,W,1,05,0.0,4.6,M,0.0,M,0.0,0166*4b
$GPGGA,080838,4609.5190,N,00109.5561,W,1,05,0.0,4.5,M,0.0,M,0.0,0167*48
$GPGGA,080844,4609.5215,N,00109.5683,W,1,04,0.0,4.2,M,0.0,M,0.0,0168*4b
$GPGGA,080849,4609.5229,N,00109.5787,W,1,05,0.0,3.9,M,0.0,M,0.0,0168*41
$GPGGA,080854,4609.5247,N,00109.5886,W,1,05,0.0,3.7,M,0.0,M,0.0,0168*45
$GPGGA,080858,4609.5267,N,00109.5972,W,1,05,0.0,3.6,M,0.0,M,0.0,0166*4e
$GPGGA,080902,4609.5288,N,00109.6048,W,1,05,0.0,3.6,M,0.0,M,0.0,0166*42
$GPGGA,080906,4609.5302,N,00109.6131,W,1,05,0.0,3.8,M,0.0,M,0.0,0166*44
$GPGGA,080911,4609.5325,N,00109.6236,W,1,05,0.0,4.0,M,0.0,M,0.0,0166*4c
$GPGGA,080916,4609.5336,N,00109.6342,W,1,06,0.0,4.1,M,0.0,M,0.0,0166*49
$GPGGA,080921,4609.5345,N,00109.6447,W,1,05,0.0,4.3,M,0.0,M,0.0,0167*4b
$GPGGA,080926,4609.5364,N,00109.6551,W,1,05,0.0,4.5,M,0.0,M,0.0,0167*4f
$GPGGA,080931,4609.5380,N,00109.6660,W,1,05,0.0,4.5,M,0.0,M,0.0,0167*42
$GPGGA,080935,4609.5389,N,00109.6742,W,1,07,0.0,4.6,M,0.0,M,0.0,0166*4e
$GPGGA,080939,4609.5407,N,00109.6817,W,1,05,0.0,4.6,M,0.0,M,0.0,0167*4f
$GPGGA,080943,4609.5416,N,00109.6895,W,1,05,0.0,4.7,M,0.0,M,0.0,0167*49
$GPGGA,080947,4609.5421,N,00109.6980,W,1,03,0.0,4.7,M,0.0,M,0.0,0168*45
$GPGGA,080951,4609.5430,N,00109.7070,W,1,05,0.0,4.7,M,0.0,M,0.0,0167*4c
$GPGGA,080957,4609.5441,N,00109.7186,W,1,05,0.0,4.8,M,0.0,M,0.0,0164*48
$GPGGA,081001,4609.5460,N,00109.7265,W,1,05,0.0,4.9,M,0.0,M,0.0,0164*4f
$GPGGA,081006,4609.5467,N,00109.7365,W,1,05,0.0,4.9,M,0.0,M,0.0,0164*4e
$GPGGA,081011,4609.5483,N,00109.7470,W,1,05,0.0,5.0,M,0.0,M,0.0,0163*4e
$GPGGA,081016,4609.5512,N,00109.7565,W,1,05,0.0,4.7,M,0.0,M,0.0,0164*44
$GPGGA,081020,4609.5524,N,00109.7658,W,1,05,0.0,4.1,M,0.0,M,0.0,0165*4e
$GPGGA,081021,4609.5531,N,00109.7679,W,1,05,0.0,4.0,M,0.0,M,0.0,0165*49
$GPGGA,081027,4609.5560,N,00109.7801,W,1,05,0.0,3.4,M,0.0,M,0.0,0167*4b
$GPGGA,081032,4609.5576,N,00109.7890,W,1,06,0.0,3.0,M,0.0,M,0.0,0167*47
$GPGGA,081037,4609.5590,N,00109.7988,W,1,05,0.0,2.4,M,0.0,M,0.0,0164*47
$GPGGA,081042,4609.5602,N,00109.8083,W,1,05,0.0,2.5,M,0.0,M,0.0,0159*4f
$GPGGA,081047,4609.5622,N,00109.8184,W,1,05,0.0,2.7,M,0.0,M,0.0,0159*4c
$GPGGA,081052,4609.5638,N,00109.8290,W,1,05,0.0,2.8,M,0.0,M,0.0,0160*40
$GPGGA,081057,4609.5650,N,00109.8375,W,1,05,0.0,2.9,M,0.0,M,0.0,0163*43
$GPGGA,081102,4609.5673,N,00109.8476,W,1,03,0.0,3.0,M,0.0,M,0.0,0163*49
$GPGGA,081107,4609.5689,N,00109.8573,W,1,05,0.0,3.0,M,0.0,M,0.0,0163*4b
$GPGGA,081112,4609.5702,N,00109.8681,W,1,04,0.0,3.0,M,0.0,M,0.0,0165*44
$GPGGA,081116,4609.5709,N,00109.8763,W,1,05,0.0,3.0,M,0.0,M,0.0,0163*41
$GPGGA,081120,4609.5721,N,00109.8831,W,1,05,0.0,3.0,M,0.0,M,0.0,0162*47
$GPGGA,081124,4609.5728,N,00109.8908,W,1,05,0.0,3.0,M,0.0,M,0.0,0160*43
$GPGGA,081128,4609.5734,N,00109.8992,W,1,05,0.0,3.0,M,0.0,M,0.0,0158*4a
$GPGGA,081134,4609.5746,N,00109.9109,W,1,05,0.0,3.2,M,0.0,M,0.0,0157*44
$GPGGA,081139,4609.5769,N,00109.9205,W,1,05,0.0,3.4,M,0.0,M,0.0,0158*42
$GPGGA,081143,4609.5787,N,00109.9288,W,1,05,0.0,3.6,M,0.0,M,0.0,0159*49
$GPGGA,081148,4609.5805,N,00109.9386,W,1,03,0.0,3.8,M,0.0,M,0.0,0160*4a
$GPGGA,081155,4609.5826,N,00109.9541,W,1,05,0.0,4.1,M,0.0,M,0.0,0161*43
$GPGGA,081200,4609.5842,N,00109.9649,W,1,05,0.0,4.2,M,0.0,M,0.0,0161*4a
$GPGGA,081205,4609.5858,N,00109.9751,W,1,05,0.0,4.4,M,0.0,M,0.0,0159*41
$GPGGA,081210,4609.5876,N,00109.9849,W,1,07,0.0,4.5,M,0.0,M,0.0,0157*42
$GPGGA,081216,4609.5901,N,00109.9970,W,1,05,0.0,4.8,M,0.0,M,0.0,0154*42
$GPGGA,081221,4609.5918,N,00110.0070,W,1,07,0.0,5.0,M,0.0,M,0.0,0154*4d
$GPGGA,081227,4609.5929,N,00110.0189,W,1,03,0.0,5.2,M,0.0,M,0.0,0156*4a
$GPGGA,081231,4609.5938,N,00110.0269,W,1,05,0.0,5.4,M,0.0,M,0.0,0157*41
$GPGGA,081236,4609.5956,N,00110.0367,W,1,05,0.0,5.6,M,0.0,M,0.0,0158*4c
$GPGGA,081241,4609.5972,N,00110.0462,W,1,03,0.0,5.9,M,0.0,M,0.0,0157*4e
$GPGGA,081246,4609.5995,N,00110.0549,W,1,05,0.0,6.1,M,0.0,M,0.0,0156*44
$GPGGA,081252,4609.6014,N,00110.0659,W,1,05,0.0,6.3,M,0.0,M,0.0,0156*42
$GPGGA,081257,4609.6025,N,00110.0756,W,1,05,0.0,6.6,M,0.0,M,0.0,0158*40
$GPGGA,081303,4609.6046,N,00110.0871,W,1,05,0.0,6.9,M,0.0,M,0.0,0159*41
$GPGGA,081309,4609.6075,N,00110.0987,W,1,05,0.0,7.3,M,0.0,M,0.0,0159*48
$GPGGA,081315,4609.6094,N,00110.1098,W,1,05,0.0,7.4,M,0.0,M,0.0,0159*4b
$GPGGA,081321,4609.6105,N,00110.1210,W,1,05,0.0,7.4,M,0.0,M,0.0,0159*47
$GPGGA,081325,4609.6112,N,00110.1290,W,1,05,0.0,7.4,M,0.0,M,0.0,0160*47
$GPGGA,081329,4609.6124,N,00110.1355,W,1,05,0.0,7.5,M,0.0,M,0.0,0158*4c
$GPGGA,081334,4609.6142,N,00110.1447,W,1,04,0.0,7.6,M,0.0,M,0.0,0159*47
$GPGGA,081340,4609.6160,N,00110.1560,W,1,03,0.0,8.0,M,0.0,M,0.0,0159*4e
$GPGGA,081346,4609.6174,N,00110.1676,W,1,05,0.0,8.6,M,0.0,M,0.0,0159*49
$GPGGA,081351,4609.6192,N,00110.1772,W,1,06,0.0,9.1,M,0.0,M,0.0,0159*47
$GPGGA,081356,4609.6199,N,00110.1863,W,1,05,0.0,9.5,M,0.0,M,0.0,0158*42
$GPGGA,081401,4609.6222,N,00110.1964,W,1,05,0.0,10.0,M,0.0,M,0.0,0159*7e
$GPGGA,081405,4609.6233,N,00110.2048,W,1,05,0.0,10.3,M,0.0,M,0.0,0160*77
$GPGGA,081409,4609.6247,N,00110.2125,W,1,05,0.0,10.6,M,0.0,M,0.0,0159*7d
$GPGGA,081413,4609.6249,N,00110.2202,W,1,05,0.0,11.0,M,0.0,M,0.0,0159*79
$GPGGA,081418,4609.6261,N,00110.2288,W,1,05,0.0,11.4,M,0.0,M,0.0,0159*7e
$GPGGA,081422,4609.6268,N,00110.2365,W,1,05,0.0,11.8,M,0.0,M,0.0,0158*71
$GPGGA,081423,4609.6270,N,00110.2382,W,1,06,0.0,11.9,M,0.0,M,0.0,0158*72
$GPGGA,081428,4609.6284,N,00110.2474,W,1,06,0.0,12.3,M,0.0,M,0.0,0158*75
$GPGGA,081430,4609.6291,N,00110.2514,W,1,06,0.0,12.5,M,0.0,M,0.0,0158*79
$GPGGA,081434,4609.6313,N,00110.2592,W,1,06,0.0,12.7,M,0.0,M,0.0,0158*7a
$GPGGA,081440,4609.6348,N,00110.2703,W,1,04,0.0,13.0,M,0.0,M,0.0,0160*72
$GPGGA,081444,4609.6348,N,00110.2779,W,1,05,0.0,13.3,M,0.0,M,0.0,0160*79
$GPGGA,081448,4609.6339,N,00110.2862,W,1,05,0.0,13.5,M,0.0,M,0.0,0159*7a
$GPGGA,081452,4609.6355,N,00110.2940,W,1,05,0.0,13.8,M,0.0,M,0.0,0160*7d
$GPGGA,081457,4609.6368,N,00110.3032,W,1,06,0.0,14.1,M,0.0,M,0.0,0160*76
$GPGGA,081501,4609.6378,N,00110.3106,W,1,05,0.0,14.2,M,0.0,M,0.0,0160*73
$GPGGA,081504,4609.6384,N,00110.3164,W,1,05,0.0,14.3,M,0.0,M,0.0,0161*71
$GPGGA,081510,4609.6405,N,00110.3273,W,1,05,0.0,14.5,M,0.0,M,0.0,0161*79
$GPGGA,081515,4609.6421,N,00110.3368,W,1,05,0.0,14.7,M,0.0,M,0.0,0160*72
$GPGGA,081520,4609.6437,N,00110.3464,W,1,05,0.0,14.9,M,0.0,M,0.0,0160*76
$GPGGA,081524,4609.6453,N,00110.3543,W,1,05,0.0,15.1,M,0.0,M,0.0,0160*7d
$GPGGA,081526,4609.6458,N,00110.3585,W,1,06,0.0,15.2,M,0.0,M,0.0,0160*7e
$GPGGA,081531,4609.6485,N,00110.3689,W,1,05,0.0,15.4,M,0.0,M,0.0,0162*70
$GPGGA,081536,4609.6524,N,00110.3789,W,1,05,0.0,15.5,M,0.0,M,0.0,0162*7d
$GPGGA,081540,4609.6526,N,00110.3859,W,1,07,0.0,15.6,M,0.0,M,0.0,0161*7e
$GPGGA,081546,4609.6533,N,00110.3959,W,1,05,0.0,15.8,M,0.0,M,0.0,0161*71
$GPGGA,081551,4609.6545,N,00110.4050,W,1,05,0.0,16.1,M,0.0,M,0.0,0161*7b
$GPGGA,081552,4609.6547,N,00110.4068,W,1,05,0.0,16.2,M,0.0,M,0.0,0160*73
$GPGGA,081557,4609.6568,N,00110.4165,W,1,05,0.0,16.5,M,0.0,M,0.0,0161*71
$GPGGA,081558,4609.6570,N,00110.4181,W,1,05,0.0,16.6,M,0.0,M,0.0,0161*7e
$GPGGA,081604,4609.6581,N,00110.4300,W,1,06,0.0,17.0,M,0.0,M,0.0,0160*74
$GPGGA,081609,4609.6593,N,00110.4406,W,1,05,0.0,17.4,M,0.0,M,0.0,0159*76
$GPGGA,081612,4609.6602,N,00110.4460,W,1,05,0.0,17.6,M,0.0,M,0.0,0159*75
$GPGGA,081619,4609.6622,N,00110.4602,W,1,05,0.0,18.0,M,0.0,M,0.0,0160*79
$GPGGA,081624,4609.6636,N,00110.4691,W,1,05,0.0,18.1,M,0.0,M,0.0,0160*79
$GPGGA,081629,4609.6650,N,00110.4780,W,1,06,0.0,18.3,M,0.0,M,0.0,0160*74
$GPGGA,081636,4609.6680,N,00110.4902,W,1,05,0.0,18.4,M,0.0,M,0.0,0159*7d
$GPGGA,081640,4609.6687,N,00110.4981,W,1,05,0.0,18.6,M,0.0,M,0.0,0159*72
$GPGGA,081645,4609.6698,N,00110.5083,W,1,05,0.0,18.5,M,0.0,M,0.0,0159*70
$GPGGA,081650,4609.6709,N,00110.5172,W,1,05,0.0,18.4,M,0.0,M,0.0,0159*73
$GPGGA,081656,4609.6723,N,00110.5276,W,1,05,0.0,18.2,M,0.0,M,0.0,0159*7c
$GPGGA,081702,4609.6728,N,00110.5382,W,1,07,0.0,18.1,M,0.0,M,0.0,0159*7c
$GPGGA,081708,4609.6746,N,00110.5499,W,1,05,0.0,18.0,M,0.0,M,0.0,0158*71
$GPGGA,081713,4609.6776,N,00110.5584,W,1,05,0.0,17.8,M,0.0,M,0.0,0153*79
$GPGGA,081720,4609.6815,N,00110.5714,W,1,04,0.0,17.6,M,0.0,M,0.0,0158*7c
$GPGGA,081726,4609.6831,N,00110.5837,W,1,05,0.0,17.3,M,0.0,M,0.0,0158*76
$GPGGA,081728,4609.6835,N,00110.5872,W,1,05,0.0,17.3,M,0.0,M,0.0,0157*72
$GPGGA,081730,4609.6851,N,00110.5902,W,1,05,0.0,17.2,M,0.0,M,0.0,0159*70
$GPGGA,081736,4609.6863,N,00110.6026,W,1,05,0.0,17.0,M,0.0,M,0.0,0159*79
$GPGGA,081742,4609.6879,N,00110.6159,W,1,05,0.0,17.1,M,0.0,M,0.0,0158*78
$GPGGA,081748,4609.6897,N,00110.6279,W,1,05,0.0,17.1,M,0.0,M,0.0,0156*7d
$GPGGA,081754,4609.6909,N,00110.6401,W,1,05,0.0,17.1,M,0.0,M,0.0,0157*7e
$GPGGA,081800,4609.6911,N,00110.6515,W,1,05,0.0,17.1,M,0.0,M,0.0,0155*7f
$GPGGA,081805,4609.6918,N,00110.6611,W,1,05,0.0,16.5,M,0.0,M,0.0,0155*71
$GPGGA,081810,4609.6925,N,00110.6712,W,1,05,0.0,15.9,M,0.0,M,0.0,0154*77
$GPGGA,081815,4609.6929,N,00110.6807,W,1,05,0.0,15.4,M,0.0,M,0.0,0153*7f
$GPGGA,081822,4609.6929,N,00110.6942,W,1,05,0.0,14.6,M,0.0,M,0.0,0154*7f
$GPGGA,081827,4609.6927,N,00110.7036,W,1,05,0.0,14.2,M,0.0,M,0.0,0152*7d
$GPGGA,081829,4609.6927,N,00110.7078,W,1,05,0.0,14.1,M,0.0,M,0.0,0152*7a
$GPGGA,081835,4609.6918,N,00110.7192,W,1,05,0.0,13.9,M,0.0,M,0.0,0150*73
$GPGGA,081838,4609.6909,N,00110.7246,W,1,03,0.0,13.8,M,0.0,M,0.0,0150*73
$GPGGA,081842,4609.6881,N,00110.7316,W,1,05,0.0,13.7,M,0.0,M,0.0,0150*72
$GPGGA,081848,4609.6822,N,00110.7404,W,1,05,0.0,13.6,M,0.0,M,0.0,0151*75
$GPGGA,081853,4609.6758,N,00110.7452,W,1,05,0.0,13.6,M,0.0,M,0.0,0153*7c
$GPGGA,081854,4609.6751,N,00110.7460,W,1,05,0.0,13.6,M,0.0,M,0.0,0154*74
$GPGGA,081859,4609.6684,N,00110.7480,W,1,05,0.0,13.7,M,0.0,M,0.0,0154*7f
$GPGGA,081903,4609.6620,N,00110.7494,W,1,05,0.0,13.8,M,0.0,M,0.0,0154*75
$GPGGA,081907,4609.6568,N,00110.7515,W,1,05,0.0,13.8,M,0.0,M,0.0,0155*77
$GPGGA,081912,4609.6494,N,00110.7544,W,1,07,0.0,13.9,M,0.0,M,0.0,0155*76
$GPGGA,081914,4609.6471,N,00110.7551,W,1,05,0.0,14.1,M,0.0,M,0.0,0155*72
$GPGGA,081917,4609.6453,N,00110.7584,W,1,05,0.0,14.1,M,0.0,M,0.0,0156*7a
$GPGGA,081922,4609.6384,N,00110.7600,W,1,05,0.0,14.5,M,0.0,M,0.0,0156*7a
$GPGGA,081927,4609.6304,N,00110.7621,W,1,05,0.0,14.9,M,0.0,M,0.0,0155*7b
$GPGGA,081929,4609.6279,N,00110.7627,W,1,05,0.0,15.1,M,0.0,M,0.0,0154*70
$GPGGA,081931,4609.6263,N,00110.7636,W,1,05,0.0,15.1,M,0.0,M,0.0,0154*72
$GPGGA,081936,4609.6190,N,00110.7645,W,1,04,0.0,15.6,M,0.0,M,0.0,0154*78
$GPGGA,081942,4609.6110,N,00110.7675,W,1,05,0.0,16.0,M,0.0,M,0.0,0154*74
$GPGGA,081947,4609.6046,N,00110.7693,W,1,05,0.0,16.3,M,0.0,M,0.0,0154*78
$GPGGA,081950,4609.6004,N,00110.7706,W,1,04,0.0,16.6,M,0.0,M,0.0,0153*76
$GPGGA,081956,4609.5929,N,00110.7739,W,1,05,0.0,16.2,M,0.0,M,0.0,0153*7c
$GPGGA,082001,4609.5863,N,00110.7758,W,1,05,0.0,15.9,M,0.0,M,0.0,0153*74
$GPGGA,082004,4609.5824,N,00110.7756,W,1,05,0.0,15.8,M,0.0,M,0.0,0153*7d
$GPGGA,082010,4609.5748,N,00110.7782,W,1,05,0.0,15.4,M,0.0,M,0.0,0155*7e
$GPGGA,082011,4609.5737,N,00110.7785,W,1,05,0.0,15.4,M,0.0,M,0.0,0155*70
$GPGGA,082016,4609.5686,N,00110.7811,W,1,05,0.0,15.1,M,0.0,M,0.0,0154*7a
$GPGGA,082018,4609.5661,N,00110.7816,W,1,05,0.0,15.0,M,0.0,M,0.0,0154*7b
$GPGGA,082022,4609.5583,N,00110.7795,W,1,05,0.0,14.7,M,0.0,M,0.0,0155*7e
$GPGGA,082028,4609.5485,N,00110.7789,W,1,05,0.0,14.3,M,0.0,M,0.0,0154*7b
$GPGGA,082033,4609.5421,N,00110.7808,W,1,05,0.0,14.0,M,0.0,M,0.0,0153*7d
$GPGGA,082037,4609.5370,N,00110.7836,W,1,05,0.0,13.7,M,0.0,M,0.0,0155*71
$GPGGA,082042,4609.5306,N,00110.7849,W,1,05,0.0,13.4,M,0.0,M,0.0,0154*78
$GPGGA,082043,4609.5293,N,00110.7844,W,1,05,0.0,13.4,M,0.0,M,0.0,0154*79
$GPGGA,082049,4609.5208,N,00110.7871,W,1,05,0.0,12.9,M,0.0,M,0.0,0154*7b
$GPGGA,082050,4609.5192,N,00110.7873,W,1,05,0.0,12.9,M,0.0,M,0.0,0155*70
$GPGGA,082052,4609.5151,N,00110.7867,W,1,05,0.0,12.7,M,0.0,M,0.0,0155*76
$GPGGA,082057,4609.5094,N,00110.7914,W,1,05,0.0,12.4,M,0.0,M,0.0,0156*7e
$GPGGA,082108,4609.5075,N,00110.7952,W,1,05,0.0,12.3,M,0.0,M,0.0,0159*70
$GPGGA,082113,4609.5071,N,00110.7945,W,1,05,0.0,12.3,M,0.0,M,0.0,0154*75
$GPGGA,082123,4609.5059,N,00110.7913,W,1,05,0.0,12.3,M,0.0,M,0.0,0150*7b
$GPGGA,082130,4609.5027,N,00110.7914,W,1,05,0.0,12.1,M,0.0,M,0.0,0142*76
$GPGGA,082134,4609.5025,N,00110.7910,W,1,05,0.0,12.1,M,0.0,M,0.0,0136*77
$GPGGA,082137,4609.5020,N,00110.7906,W,1,05,0.0,12.1,M,0.0,M,0.0,0130*70
$GPGGA,082138,4609.5020,N,00110.7906,W,1,05,0.0,12.1,M,0.0,M,0.0,0125*7b
$GPGGA,082143,4609.5009,N,00110.7899,W,1,05,0.0,12.0,M,0.0,M,0.0,0125*7a
$GPGGA,082148,4609.4940,N,00110.7907,W,1,05,0.0,11.9,M,0.0,M,0.0,0127*7a
$GPGGA,082150,4609.4913,N,00110.7915,W,1,05,0.0,11.8,M,0.0,M,0.0,0131*70
$GPGGA,082152,4609.4883,N,00110.7922,W,1,05,0.0,11.8,M,0.0,M,0.0,0138*77
$GPGGA,082153,4609.4869,N,00110.7926,W,1,07,0.0,11.7,M,0.0,M,0.0,0138*7b
$GPGGA,082157,4609.4814,N,00110.7943,W,1,05,0.0,11.6,M,0.0,M,0.0,0138*75
$GPGGA,082202,4609.4732,N,00110.7953,W,1,05,0.0,11.5,M,0.0,M,0.0,0135*72
$GPGGA,082207,4609.4661,N,00110.7966,W,1,05,0.0,11.3,M,0.0,M,0.0,0136*73
$GPGGA,082212,4609.4585,N,00110.7983,W,1,04,0.0,11.2,M,0.0,M,0.0,0140*74
$GPGGA,082217,4609.4524,N,00110.8017,W,1,05,0.0,11.1,M,0.0,M,0.0,0141*72
$GPGGA,082219,4609.4496,N,00110.8029,W,1,05,0.0,11.0,M,0.0,M,0.0,0141*78
$GPGGA,082223,4609.4434,N,00110.8054,W,1,06,0.0,10.7,M,0.0,M,0.0,0141*76
$GPGGA,082229,4609.4354,N,00110.8106,W,1,05,0.0,10.2,M,0.0,M,0.0,0142*7e
$GPGGA,082234,4609.4286,N,00110.8148,W,1,05,0.0,9.8,M,0.0,M,0.0,0142*44
$GPGGA,082238,4609.4226,N,00110.8178,W,1,07,0.0,9.3,M,0.0,M,0.0,0142*48
$GPGGA,082242,4609.4171,N,00110.8205,W,1,05,0.0,8.9,M,0.0,M,0.0,0143*45
$GPGGA,082246,4609.4121,N,00110.8241,W,1,05,0.0,8.5,M,0.0,M,0.0,0143*48
$GPGGA,082250,4609.4098,N,00110.8294,W,1,05,0.0,8.2,M,0.0,M,0.0,0144*44
$GPGGA,082256,4609.4011,N,00110.8311,W,1,05,0.0,7.5,M,0.0,M,0.0,0144*47
$GPGGA,082257,4609.4002,N,00110.8321,W,1,05,0.0,7.4,M,0.0,M,0.0,0144*46
$GPGGA,082303,4609.3915,N,00110.8346,W,1,05,0.0,7.0,M,0.0,M,0.0,0143*4c
$GPGGA,082308,4609.3839,N,00110.8376,W,1,05,0.0,6.6,M,0.0,M,0.0,0145*4a
$GPGGA,082314,4609.3748,N,00110.8409,W,1,05,0.0,6.2,M,0.0,M,0.0,0145*45
$GPGGA,082318,4609.3690,N,00110.8437,W,1,05,0.0,5.9,M,0.0,M,0.0,0145*48
$GPGGA,082323,4609.3624,N,00110.8465,W,1,05,0.0,5.6,M,0.0,M,0.0,0144*46
$GPGGA,082327,4609.3571,N,00110.8480,W,1,05,0.0,5.3,M,0.0,M,0.0,0145*4e
$GPGGA,082330,4609.3533,N,00110.8491,W,1,05,0.0,5.1,M,0.0,M,0.0,0148*41
$GPGGA,082333,4609.3491,N,00110.8499,W,1,05,0.0,5.0,M,0.0,M,0.0,0150*4b
$GPGGA,082337,4609.3432,N,00110.8511,W,1,05,0.0,5.2,M,0.0,M,0.0,0149*4d
$GPGGA,082341,4609.3386,N,00110.8551,W,1,05,0.0,5.3,M,0.0,M,0.0,0146*4e
$GPGGA,082346,4609.3320,N,00110.8564,W,1,05,0.0,5.4,M,0.0,M,0.0,0147*45
$GPGGA,082349,4609.3279,N,00110.8570,W,1,05,0.0,5.5,M,0.0,M,0.0,0147*43
$GPGGA,082355,4609.3194,N,00110.8562,W,1,05,0.0,5.7,M,0.0,M,0.0,0151*48
$GPGGA,082400,4609.3121,N,00110.8551,W,1,05,0.0,5.8,M,0.0,M,0.0,0150*4f
$GPGGA,082404,4609.3068,N,00110.8550,W,1,03,0.0,5.9,M,0.0,M,0.0,0150*41
$GPGGA,082409,4609.3011,N,00110.8555,W,1,05,0.0,6.0,M,0.0,M,0.0,0151*4a
$GPGGA,082414,4609.2935,N,00110.8547,W,1,05,0.0,6.1,M,0.0,M,0.0,0151*4a
$GPGGA,082419,4609.2862,N,00110.8533,W,1,04,0.0,6.3,M,0.0,M,0.0,0151*44
$GPGGA,082424,4609.2777,N,00110.8506,W,1,06,0.0,6.5,M,0.0,M,0.0,0151*43
$GPGGA,082429,4609.2699,N,00110.8467,W,1,05,0.0,6.4,M,0.0,M,0.0,0150*4a
$GPGGA,082430,4609.2686,N,00110.8457,W,1,06,0.0,6.4,M,0.0,M,0.0,0150*4c
$GPGGA,082436,4609.2610,N,00110.8434,W,1,05,0.0,6.4,M,0.0,M,0.0,0150*43
$GPGGA,082441,4609.2537,N,00110.8430,W,1,06,0.0,6.4,M,0.0,M,0.0,0150*42
$GPGGA,082445,4609.2480,N,00110.8438,W,1,05,0.0,6.2,M,0.0,M,0.0,0151*47
$GPGGA,082450,4609.2422,N,00110.8519,W,1,05,0.0,5.8,M,0.0,M,0.0,0151*40
$GPGGA,082454,4609.2393,N,00110.8599,W,1,05,0.0,5.5,M,0.0,M,0.0,0152*4f
$GPGGA,082501,4609.2384,N,00110.8751,W,1,05,0.0,5.8,M,0.0,M,0.0,0152*43
$GPGGA,082506,4609.2393,N,00110.8858,W,1,05,0.0,6.2,M,0.0,M,0.0,0152*4d
$GPGGA,082512,4609.2393,N,00110.8980,W,1,05,0.0,6.5,M,0.0,M,0.0,0152*4b
$GPGGA,082518,4609.2393,N,00110.9107,W,1,03,0.0,6.1,M,0.0,M,0.0,0152*45
$GPGGA,082524,4609.2384,N,00110.9230,W,1,05,0.0,5.6,M,0.0,M,0.0,0152*49
$GPGGA,082529,4609.2379,N,00110.9334,W,1,05,0.0,5.1,M,0.0,M,0.0,0152*44
$GPGGA,082534,4609.2379,N,00110.9434,W,1,05,0.0,4.8,M,0.0,M,0.0,0152*47
$GPGGA,082540,4609.2384,N,00110.9546,W,1,05,0.0,4.6,M,0.0,M,0.0,0153*4d
$GPGGA,082546,4609.2381,N,00110.9667,W,1,06,0.0,4.6,M,0.0,M,0.0,0152*4c
$GPGGA,082552,4609.2368,N,00110.9779,W,1,07,0.0,4.4,M,0.0,M,0.0,0152*43
$GPGGA,082555,4609.2361,N,00110.9834,W,1,05,0.0,4.3,M,0.0,M,0.0,0152*4e
$GPGGA,082602,4609.2356,N,00110.9971,W,1,04,0.0,4.3,M,0.0,M,0.0,0154*4c
$GPGGA,082607,4609.2345,N,00111.0071,W,1,05,0.0,3.8,M,0.0,M,0.0,0155*46
$GPGGA,082612,4609.2331,N,00111.0165,W,1,05,0.0,3.1,M,0.0,M,0.0,0155*4c
$GPGGA,082618,4609.2306,N,00111.0280,W,1,05,0.0,2.2,M,0.0,M,0.0,0155*48
$GPGGA,082623,4609.2278,N,00111.0378,W,1,05,0.0,1.4,M,0.0,M,0.0,0154*4a
$GPGGA,082628,4609.2260,N,00111.0473,W,1,03,0.0,0.7,M,0.0,M,0.0,0154*40
$GPGGA,082634,4609.2253,N,00111.0589,W,1,06,0.0,0.3,M,0.0,M,0.0,0155*49
$GPGGA,082639,4609.2246,N,00111.0686,W,1,05,0.0,-0.1,M,0.0,M,0.0,0154*61
$GPGGA,082644,4609.2239,N,00111.0785,W,1,05,0.0,-0.4,M,0.0,M,0.0,0154*64
$GPGGA,082651,4609.2237,N,00111.0917,W,1,03,0.0,-0.9,M,0.0,M,0.0,0154*60
$GPGGA,082657,4609.2242,N,00111.1043,W,1,05,0.0,-1.2,M,0.0,M,0.0,0154*61
$GPGGA,082701,4609.2242,N,00111.1125,W,1,07,0.0,-1.3,M,0.0,M,0.0,0155*60
$GPGGA,082706,4609.2244,N,00111.1224,W,1,05,0.0,-1.5,M,0.0,M,0.0,0155*67
$GPGGA,082711,4609.2244,N,00111.1321,W,1,07,0.0,-1.7,M,0.0,M,0.0,0156*66
$GPGGA,082716,4609.2255,N,00111.1419,W,1,05,0.0,-1.8,M,0.0,M,0.0,0156*60
$GPGGA,082721,4609.2255,N,00111.1517,W,1,05,0.0,-1.9,M,0.0,M,0.0,0155*69
$GPGGA,082727,4609.2262,N,00111.1647,W,1,05,0.0,-1.7,M,0.0,M,0.0,0154*62
$GPGGA,082734,4609.2269,N,00111.1785,W,1,05,0.0,-1.4,M,0.0,M,0.0,0155*66
$GPGGA,082740,4609.2276,N,00111.1902,W,1,05,0.0,-1.3,M,0.0,M,0.0,0156*6e
$GPGGA,082745,4609.2278,N,00111.1994,W,1,05,0.0,-1.1,M,0.0,M,0.0,0155*6b
$GPGGA,082750,4609.2269,N,00111.2087,W,1,05,0.0,-0.7,M,0.0,M,0.0,0155*60
$GPGGA,082754,4609.2267,N,00111.2167,W,1,05,0.0,-0.4,M,0.0,M,0.0,0155*66
$GPGGA,082758,4609.2262,N,00111.2244,W,1,03,0.0,-0.0,M,0.0,M,0.0,0155*6f
$GPGGA,082804,4609.2258,N,00111.2357,W,1,05,0.0,0.4,M,0.0,M,0.0,0156*4f
$GPGGA,082810,4609.2255,N,00111.2485,W,1,06,0.0,1.0,M,0.0,M,0.0,0155*4a
$GPGGA,082815,4609.2258,N,00111.2585,W,1,05,0.0,1.4,M,0.0,M,0.0,0155*44
$GPGGA,082821,4609.2255,N,00111.2705,W,1,05,0.0,1.9,M,0.0,M,0.0,0156*4a
$GPGGA,082827,4609.2253,N,00111.2823,W,1,06,0.0,2.3,M,0.0,M,0.0,0157*4a
$GPGGA,082832,4609.2258,N,00111.2923,W,1,05,0.0,2.7,M,0.0,M,0.0,0157*43
$GPGGA,082837,4609.2276,N,00111.3026,W,1,05,0.0,3.1,M,0.0,M,0.0,0157*40
$GPGGA,082842,4609.2294,N,00111.3115,W,1,05,0.0,3.0,M,0.0,M,0.0,0155*4c
$GPGGA,082848,4609.2322,N,00111.3222,W,1,05,0.0,2.7,M,0.0,M,0.0,0155*4b
$GPGGA,082853,4609.2352,N,00111.3313,W,1,07,0.0,2.4,M,0.0,M,0.0,0156*47
$GPGGA,082858,4609.2384,N,00111.3405,W,1,05,0.0,2.0,M,0.0,M,0.0,0159*4e
$GPGGA,082904,4609.2427,N,00111.3512,W,1,05,0.0,1.4,M,0.0,M,0.0,0157*46
$GPGGA,082911,4609.2475,N,00111.3622,W,1,05,0.0,1.8,M,0.0,M,0.0,0156*48
$GPGGA,082916,4609.2509,N,00111.3706,W,1,05,0.0,2.2,M,0.0,M,0.0,0156*4b
$GPGGA,082921,4609.2551,N,00111.3787,W,1,06,0.0,2.8,M,0.0,M,0.0,0155*41
$GPGGA,082926,4609.2603,N,00111.3866,W,1,05,0.0,3.3,M,0.0,M,0.0,0156*48
$GPGGA,082931,4609.2661,N,00111.3926,W,1,06,0.0,3.6,M,0.0,M,0.0,0156*49
$GPGGA,082936,4609.2725,N,00111.3960,W,1,07,0.0,3.8,M,0.0,M,0.0,0158*4c
$GPGGA,082941,4609.2800,N,00111.3945,W,1,05,0.0,3.7,M,0.0,M,0.0,0158*4e
$GPGGA,082947,4609.2883,N,00111.3905,W,1,05,0.0,3.6,M,0.0,M,0.0,0159*47
$GPGGA,082952,4609.2947,N,00111.3853,W,1,07,0.0,3.4,M,0.0,M,0.0,0161*43
$GPGGA,082957,4609.3008,N,00111.3790,W,1,05,0.0,3.2,M,0.0,M,0.0,0163*43
$GPGGA,083000,4609.3043,N,00111.3748,W,1,05,0.0,3.0,M,0.0,M,0.0,0163*41
$GPGGA,083006,4609.3107,N,00111.3670,W,1,05,0.0,2.6,M,0.0,M,0.0,0162*4a
$GPGGA,083009,4609.3139,N,00111.3630,W,1,05,0.0,2.4,M,0.0,M,0.0,0161*4d
$GPGGA,083015,4609.3208,N,00111.3542,W,1,05,0.0,2.1,M,0.0,M,0.0,0160*43
$GPGGA,083020,4609.3258,N,00111.3480,W,1,05,0.0,2.0,M,0.0,M,0.0,0161*4f
$GPGGA,083024,4609.3292,N,00111.3427,W,1,05,0.0,2.0,M,0.0,M,0.0,0162*43
$GPGGA,083030,4609.3361,N,00111.3345,W,1,05,0.0,1.9,M,0.0,M,0.0,0161*41
$GPGGA,083035,4609.3407,N,00111.3281,W,1,05,0.0,1.7,M,0.0,M,0.0,0161*44
$GPGGA,083037,4609.3425,N,00111.3253,W,1,05,0.0,1.7,M,0.0,M,0.0,0160*48
$GPGGA,083041,4609.3468,N,00111.3204,W,1,05,0.0,1.5,M,0.0,M,0.0,0159*4a
$GPGGA,083046,4609.3521,N,00111.3145,W,1,05,0.0,1.4,M,0.0,M,0.0,0160*4c
$GPGGA,083051,4609.3574,N,00111.3080,W,1,06,0.0,1.4,M,0.0,M,0.0,0157*45
$GPGGA,083058,4609.3645,N,00111.2983,W,1,05,0.0,1.6,M,0.0,M,0.0,0157*47
$GPGGA,083103,4609.3690,N,00111.2916,W,1,05,0.0,2.0,M,0.0,M,0.0,0157*49
$GPGGA,083108,4609.3743,N,00111.2850,W,1,05,0.0,2.3,M,0.0,M,0.0,0157*4d
$GPGGA,083113,4609.3805,N,00111.2799,W,1,04,0.0,2.5,M,0.0,M,0.0,0156*46
$GPGGA,083119,4609.3878,N,00111.2733,W,1,05,0.0,2.8,M,0.0,M,0.0,0158*44
$GPGGA,083124,4609.3940,N,00111.2691,W,1,05,0.0,2.9,M,0.0,M,0.0,0158*48
$GPGGA,083131,4609.4020,N,00111.2630,W,1,07,0.0,3.0,M,0.0,M,0.0,0155*48
$GPGGA,083135,4609.4068,N,00111.2607,W,1,05,0.0,3.0,M,0.0,M,0.0,0156*45
$GPGGA,083140,4609.4135,N,00111.2585,W,1,05,0.0,3.0,M,0.0,M,0.0,0160*42
$GPGGA,083147,4609.4228,N,00111.2556,W,1,05,0.0,2.9,M,0.0,M,0.0,0159*46
$GPGGA,083152,4609.4295,N,00111.2534,W,1,05,0.0,3.0,M,0.0,M,0.0,0158*49
$GPGGA,083157,4609.4354,N,00111.2510,W,1,05,0.0,3.0,M,0.0,M,0.0,0158*46
$GPGGA,083202,4609.4421,N,00111.2493,W,1,05,0.0,3.0,M,0.0,M,0.0,0159*4b
$GPGGA,083207,4609.4485,N,00111.2473,W,1,05,0.0,3.1,M,0.0,M,0.0,0158*4e
$GPGGA,083212,4609.4549,N,00111.2451,W,1,05,0.0,2.8,M,0.0,M,0.0,0157*4c
$GPGGA,083217,4609.4617,N,00111.2424,W,1,06,0.0,2.5,M,0.0,M,0.0,0159*43
$GPGGA,083223,4609.4695,N,00111.2370,W,1,05,0.0,2.3,M,0.0,M,0.0,0163*44
$GPGGA,083230,4609.4782,N,00111.2288,W,1,05,0.0,2.2,M,0.0,M,0.0,0162*47
$GPGGA,083235,4609.4837,N,00111.2213,W,1,05,0.0,2.3,M,0.0,M,0.0,0162*40
$GPGGA,083241,4609.4904,N,00111.2130,W,1,04,0.0,2.5,M,0.0,M,0.0,0161*44
$GPGGA,083247,4609.4965,N,00111.2055,W,1,05,0.0,2.8,M,0.0,M,0.0,0162*48
$GPGGA,083252,4609.5020,N,00111.1989,W,1,05,0.0,3.0,M,0.0,M,0.0,0161*44
$GPGGA,083258,4609.5084,N,00111.1916,W,1,05,0.0,3.3,M,0.0,M,0.0,0162*46
$GPGGA,083301,4609.5110,N,00111.1882,W,1,03,0.0,3.3,M,0.0,M,0.0,0162*4d
$GPGGA,083308,4609.5181,N,00111.1801,W,1,05,0.0,3.4,M,0.0,M,0.0,0162*46
$GPGGA,083314,4609.5242,N,00111.1729,W,1,06,0.0,3.3,M,0.0,M,0.0,0159*4e
$GPGGA,083318,4609.5288,N,00111.1677,W,1,05,0.0,3.2,M,0.0,M,0.0,0157*42
$GPGGA,083323,4609.5338,N,00111.1612,W,1,05,0.0,3.0,M,0.0,M,0.0,0158*4e
$GPGGA,083330,4609.5414,N,00111.1519,W,1,05,0.0,2.5,M,0.0,M,0.0,0161*43
$GPGGA,083334,4609.5460,N,00111.1465,W,1,05,0.0,2.4,M,0.0,M,0.0,0160*4e
$GPGGA,083339,4609.5508,N,00111.1393,W,1,05,0.0,2.5,M,0.0,M,0.0,0158*48
$GPGGA,083345,4609.5567,N,00111.1312,W,1,05,0.0,2.9,M,0.0,M,0.0,0156*41
$GPGGA,083350,4609.5618,N,00111.1252,W,1,05,0.0,3.1,M,0.0,M,0.0,0156*42
$GPGGA,083354,4609.5659,N,00111.1223,W,1,07,0.0,3.2,M,0.0,M,0.0,0157*45
$GPGGA,083359,4609.5709,N,00111.1189,W,1,05,0.0,3.3,M,0.0,M,0.0,0158*43
$GPGGA,083405,4609.5737,N,00111.1160,W,1,05,0.0,3.3,M,0.0,M,0.0,0156*49
$GPGGA,083412,4609.5746,N,00111.1147,W,1,05,0.0,3.4,M,0.0,M,0.0,0153*4e
$GPGGA,083415,4609.5778,N,00111.1132,W,1,05,0.0,3.4,M,0.0,M,0.0,0152*47
$GPGGA,083421,4609.5803,N,00111.1081,W,1,05,0.0,3.4,M,0.0,M,0.0,0150*48
$GPGGA,083423,4609.5817,N,00111.1070,W,1,05,0.0,3.4,M,0.0,M,0.0,0149*49
$GPGGA,083430,4609.5860,N,00111.1019,W,1,03,0.0,3.3,M,0.0,M,0.0,0145*49
$GPGGA,083433,4609.5879,N,00111.1001,W,1,06,0.0,3.2,M,0.0,M,0.0,0142*48
$GPGGA,083439,4609.5899,N,00111.0977,W,1,05,0.0,3.2,M,0.0,M,0.0,0140*44
$GPGGA,083446,4609.5931,N,00111.0924,W,1,05,0.0,3.3,M,0.0,M,0.0,0135*4a
$GPGGA,083452,4609.5966,N,00111.0876,W,1,05,0.0,3.3,M,0.0,M,0.0,0133*4d
$GPGGA,083458,4609.5993,N,00111.0827,W,1,05,0.0,3.4,M,0.0,M,0.0,0130*4d
$GPGGA,083503,4609.6021,N,00111.0786,W,1,05,0.0,3.4,M,0.0,M,0.0,0130*45
$GPGGA,083505,4609.6032,N,00111.0770,W,1,05,0.0,3.4,M,0.0,M,0.0,0130*48
$GPGGA,083509,4609.6059,N,00111.0725,W,1,05,0.0,3.4,M,0.0,M,0.0,0131*48
$GPGGA,083513,4609.6098,N,00111.0670,W,1,05,0.0,3.5,M,0.0,M,0.0,0133*4c
$GPGGA,083516,4609.6128,N,00111.0631,W,1,05,0.0,3.5,M,0.0,M,0.0,0135*40
$GPGGA,083522,4609.6201,N,00111.0547,W,1,05,0.0,3.5,M,0.0,M,0.0,0140*4f
$GPGGA,083527,4609.6259,N,00111.0493,W,1,05,0.0,3.5,M,0.0,M,0.0,0145*4a
$GPGGA,083531,4609.6309,N,00111.0436,W,1,05,0.0,3.5,M,0.0,M,0.0,0149*4a
$GPGGA,083537,4609.6366,N,00111.0344,W,1,05,0.0,3.6,M,0.0,M,0.0,0147*4a
$GPGGA,083542,4609.6416,N,00111.0280,W,1,04,0.0,3.6,M,0.0,M,0.0,0147*40
$GPGGA,083547,4609.6476,N,00111.0215,W,1,05,0.0,3.6,M,0.0,M,0.0,0149*40
$GPGGA,083548,4609.6490,N,00111.0209,W,1,05,0.0,3.6,M,0.0,M,0.0,0150*42
$GPGGA,083553,4609.6542,N,00111.0141,W,1,05,0.0,3.8,M,0.0,M,0.0,0150*47
$GPGGA,083559,4609.6609,N,00111.0062,W,1,05,0.0,4.1,M,0.0,M,0.0,0151*4e
$GPGGA,083605,4609.6671,N,00110.9984,W,1,05,0.0,4.4,M,0.0,M,0.0,0151*47
$GPGGA,083608,4609.6698,N,00110.9942,W,1,05,0.0,4.5,M,0.0,M,0.0,0151*46
$GPGGA,083614,4609.6762,N,00110.9878,W,1,05,0.0,4.6,M,0.0,M,0.0,0152*47
$GPGGA,083619,4609.6835,N,00110.9895,W,1,05,0.0,4.7,M,0.0,M,0.0,0153*44
$GPGGA,083624,4609.6867,N,00110.9980,W,1,05,0.0,4.7,M,0.0,M,0.0,0157*4c
$GPGGA,083626,4609.6865,N,00111.0021,W,1,05,0.0,4.7,M,0.0,M,0.0,0157*46
$GPGGA,083631,4609.6854,N,00111.0126,W,1,05,0.0,4.6,M,0.0,M,0.0,0157*45
$GPGGA,083637,4609.6835,N,00111.0232,W,1,05,0.0,4.5,M,0.0,M,0.0,0157*41
$GPGGA,083642,4609.6819,N,00111.0335,W,1,05,0.0,4.4,M,0.0,M,0.0,0159*44
$GPGGA,083645,4609.6817,N,00111.0400,W,1,07,0.0,4.3,M,0.0,M,0.0,0159*49
$GPGGA,083652,4609.6810,N,00111.0545,W,1,05,0.0,4.2,M,0.0,M,0.0,0159*4b
$GPGGA,083657,4609.6792,N,00111.0651,W,1,05,0.0,4.0,M,0.0,M,0.0,0157*41
$GPGGA,083702,4609.6771,N,00111.0759,W,1,05,0.0,3.8,M,0.0,M,0.0,0158*44
$GPGGA,083707,4609.6758,N,00111.0857,W,1,05,0.0,3.7,M,0.0,M,0.0,0159*45
$GPGGA,083711,4609.6762,N,00111.0938,W,1,05,0.0,3.6,M,0.0,M,0.0,0159*42
$GPGGA,083716,4609.6764,N,00111.1034,W,1,05,0.0,3.7,M,0.0,M,0.0,0159*46
$GPGGA,083718,4609.6760,N,00111.1073,W,1,04,0.0,3.7,M,0.0,M,0.0,0159*4e
$GPGGA,083723,4609.6741,N,00111.1161,W,1,05,0.0,3.8,M,0.0,M,0.0,0160*43
$GPGGA,083728,4609.6728,N,00111.1251,W,1,05,0.0,3.9,M,0.0,M,0.0,0158*4d
$GPGGA,083733,4609.6716,N,00111.1357,W,1,05,0.0,4.0,M,0.0,M,0.0,0159*42
$GPGGA,083739,4609.6693,N,00111.1472,W,1,03,0.0,4.1,M,0.0,M,0.0,0159*43
$GPGGA,083743,4609.6684,N,00111.1556,W,1,05,0.0,4.2,M,0.0,M,0.0,0159*4a
$GPGGA,083748,4609.6668,N,00111.1656,W,1,04,0.0,4.4,M,0.0,M,0.0,0160*4d
$GPGGA,083752,4609.6650,N,00111.1734,W,1,05,0.0,4.6,M,0.0,M,0.0,0158*40
$GPGGA,083756,4609.6638,N,00111.1811,W,1,05,0.0,4.7,M,0.0,M,0.0,0158*43
$GPGGA,083801,4609.6627,N,00111.1915,W,1,05,0.0,5.0,M,0.0,M,0.0,0158*43
$GPGGA,083805,4609.6613,N,00111.1993,W,1,05,0.0,5.2,M,0.0,M,0.0,0158*4c
$GPGGA,083811,4609.6609,N,00111.2120,W,1,05,0.0,5.2,M,0.0,M,0.0,0160*4a
$GPGGA,083816,4609.6595,N,00111.2218,W,1,05,0.0,5.2,M,0.0,M,0.0,0160*43
$GPGGA,083823,4609.6586,N,00111.2346,W,1,05,0.0,5.2,M,0.0,M,0.0,0157*49
$GPGGA,083828,4609.6570,N,00111.2434,W,1,05,0.0,5.1,M,0.0,M,0.0,0157*4a
$GPGGA,083834,4609.6558,N,00111.2552,W,1,05,0.0,5.0,M,0.0,M,0.0,0156*4c
$GPGGA,083839,4609.6552,N,00111.2655,W,1,05,0.0,4.8,M,0.0,M,0.0,0156*46
$GPGGA,083842,4609.6540,N,00111.2705,W,1,05,0.0,4.7,M,0.0,M,0.0,0155*41
$GPGGA,083849,4609.6531,N,00111.2855,W,1,06,0.0,4.4,M,0.0,M,0.0,0155*46
$GPGGA,083855,4609.6513,N,00111.2981,W,1,05,0.0,4.1,M,0.0,M,0.0,0157*47
$GPGGA,083900,4609.6499,N,00111.3077,W,1,05,0.0,4.2,M,0.0,M,0.0,0157*47
$GPGGA,083906,4609.6490,N,00111.3198,W,1,05,0.0,4.4,M,0.0,M,0.0,0156*4f
$GPGGA,083912,4609.6481,N,00111.3323,W,1,06,0.0,4.6,M,0.0,M,0.0,0156*49
$GPGGA,083917,4609.6474,N,00111.3424,W,1,05,0.0,4.8,M,0.0,M,0.0,0156*4b
$GPGGA,083924,4609.6460,N,00111.3566,W,1,05,0.0,4.8,M,0.0,M,0.0,0158*47
$GPGGA,083928,4609.6442,N,00111.3636,W,1,05,0.0,4.7,M,0.0,M,0.0,0158*42
$GPGGA,083934,4609.6430,N,00111.3759,W,1,05,0.0,4.5,M,0.0,M,0.0,0158*40
$GPGGA,083940,4609.6416,N,00111.3874,W,1,05,0.0,4.3,M,0.0,M,0.0,0158*41
$GPGGA,083947,4609.6405,N,00111.4011,W,1,05,0.0,4.2,M,0.0,M,0.0,0158*49
$GPGGA,083952,4609.6396,N,00111.4110,W,1,03,0.0,4.1,M,0.0,M,0.0,0159*44
$GPGGA,083958,4609.6375,N,00111.4222,W,1,06,0.0,4.0,M,0.0,M,0.0,0159*45
$GPGGA,084004,4609.6364,N,00111.4341,W,1,05,0.0,4.0,M,0.0,M,0.0,0158*44
$GPGGA,084011,4609.6348,N,00111.4481,W,1,05,0.0,3.9,M,0.0,M,0.0,0158*4b
$GPGGA,084016,4609.6332,N,00111.4577,W,1,05,0.0,4.2,M,0.0,M,0.0,0158*45
$GPGGA,084017,4609.6329,N,00111.4598,W,1,05,0.0,4.3,M,0.0,M,0.0,0158*4e
$GPGGA,084023,4609.6313,N,00111.4717,W,1,04,0.0,4.7,M,0.0,M,0.0,0158*40
$GPGGA,084030,4609.6291,N,00111.4851,W,1,05,0.0,5.3,M,0.0,M,0.0,0157*4f
$GPGGA,084035,4609.6281,N,00111.4950,W,1,03,0.0,5.6,M,0.0,M,0.0,0157*48
$GPGGA,084041,4609.6259,N,00111.5060,W,1,05,0.0,6.1,M,0.0,M,0.0,0157*47
$GPGGA,084047,4609.6238,N,00111.5177,W,1,04,0.0,6.4,M,0.0,M,0.0,0157*45
$GPGGA,084055,4609.6222,N,00111.5335,W,1,05,0.0,6.8,M,0.0,M,0.0,0157*44
$GPGGA,084100,4609.6208,N,00111.5421,W,1,05,0.0,7.0,M,0.0,M,0.0,0157*46
$GPGGA,084105,4609.6229,N,00111.5514,W,1,05,0.0,7.1,M,0.0,M,0.0,0157*46
$GPGGA,084109,4609.6281,N,00111.5544,W,1,05,0.0,6.9,M,0.0,M,0.0,0158*4b
$GPGGA,084114,4609.6355,N,00111.5572,W,1,05,0.0,6.7,M,0.0,M,0.0,0159*45
$GPGGA,084119,4609.6426,N,00111.5593,W,1,07,0.0,6.5,M,0.0,M,0.0,0157*4a
$GPGGA,084124,4609.6497,N,00111.5601,W,1,06,0.0,6.2,M,0.0,M,0.0,0158*4f
$GPGGA,084130,4609.6581,N,00111.5615,W,1,05,0.0,6.2,M,0.0,M,0.0,0156*44
$GPGGA,084136,4609.6634,N,00111.5647,W,1,05,0.0,6.2,M,0.0,M,0.0,0154*4a
$GPGGA,084155,4609.6819,N,00111.5741,W,1,05,0.0,6.2,M,0.0,M,0.0,0156*4b
$GPGGA,084159,4609.6998,N,00111.5681,W,1,07,0.0,6.0,M,0.0,M,0.0,0155*41
$GPGGA,084204,4609.7048,N,00111.5580,W,1,05,0.0,5.9,M,0.0,M,0.0,0155*45
$GPGGA,084206,4609.7066,N,00111.5533,W,1,05,0.0,5.9,M,0.0,M,0.0,0156*40
$GPGGA,084210,4609.7085,N,00111.5460,W,1,05,0.0,5.8,M,0.0,M,0.0,0157*4d
$GPGGA,084213,4609.7089,N,00111.5416,W,1,05,0.0,5.8,M,0.0,M,0.0,0158*4c
$GPGGA,084218,4609.7101,N,00111.5317,W,1,05,0.0,5.7,M,0.0,M,0.0,0157*40
$GPGGA,084226,4609.7115,N,00111.5146,W,1,04,0.0,5.6,M,0.0,M,0.0,0154*4d
$GPGGA,084227,4609.7115,N,00111.5121,W,1,07,0.0,5.6,M,0.0,M,0.0,0154*4e
$GPGGA,084231,4609.7128,N,00111.5027,W,1,05,0.0,5.5,M,0.0,M,0.0,0154*41
$GPGGA,084235,4609.7124,N,00111.4950,W,1,05,0.0,5.5,M,0.0,M,0.0,0157*42
$GPGGA,084239,4609.7131,N,00111.4878,W,1,05,0.0,5.5,M,0.0,M,0.0,0158*4e
$GPGGA,084243,4609.7142,N,00111.4798,W,1,07,0.0,5.5,M,0.0,M,0.0,0158*44
$GPGGA,084248,4609.7158,N,00111.4692,W,1,04,0.0,5.6,M,0.0,M,0.0,0156*41
$GPGGA,084251,4609.7165,N,00111.4634,W,1,04,0.0,5.6,M,0.0,M,0.0,0156*4b
$GPGGA,084257,4609.7181,N,00111.4513,W,1,05,0.0,5.6,M,0.0,M,0.0,0155*43
$GPGGA,084302,4609.7192,N,00111.4418,W,1,05,0.0,5.7,M,0.0,M,0.0,0156*48
$GPGGA,084303,4609.7195,N,00111.4398,W,1,05,0.0,5.8,M,0.0,M,0.0,0156*4e
$GPGGA,084310,4609.7208,N,00111.4262,W,1,05,0.0,6.0,M,0.0,M,0.0,0158*4a
$GPGGA,084315,4609.7222,N,00111.4158,W,1,05,0.0,6.2,M,0.0,M,0.0,0158*4f
$GPGGA,084320,4609.7240,N,00111.4049,W,1,05,0.0,6.4,M,0.0,M,0.0,0159*4b
$GPGGA,084325,4609.7234,N,00111.3952,W,1,05,0.0,6.4,M,0.0,M,0.0,0159*49
$GPGGA,084330,4609.7229,N,00111.3872,W,1,05,0.0,6.2,M,0.0,M,0.0,0161*4f
$GPGGA,084336,4609.7245,N,00111.3767,W,1,05,0.0,6.0,M,0.0,M,0.0,0163*48
$GPGGA,084340,4609.7252,N,00111.3688,W,1,05,0.0,5.9,M,0.0,M,0.0,0164*42
$GPGGA,084341,4609.7252,N,00111.3667,W,1,05,0.0,5.8,M,0.0,M,0.0,0164*43
$GPGGA,084346,4609.7245,N,00111.3563,W,1,05,0.0,5.6,M,0.0,M,0.0,0163*4c
$GPGGA,084350,4609.7240,N,00111.3497,W,1,06,0.0,5.5,M,0.0,M,0.0,0161*46
$GPGGA,084356,4609.7229,N,00111.3378,W,1,05,0.0,5.8,M,0.0,M,0.0,0160*46
$GPGGA,084402,4609.7222,N,00111.3260,W,1,05,0.0,6.1,M,0.0,M,0.0,0161*48
$GPGGA,084403,4609.7218,N,00111.3241,W,1,05,0.0,6.1,M,0.0,M,0.0,0160*42
$GPGGA,084406,4609.7215,N,00111.3180,W,1,05,0.0,6.3,M,0.0,M,0.0,0160*46
$GPGGA,084412,4609.7165,N,00111.3074,W,1,05,0.0,6.4,M,0.0,M,0.0,0158*41
$GPGGA,084416,4609.7151,N,00111.2987,W,1,05,0.0,6.6,M,0.0,M,0.0,0158*44
$GPGGA,084420,4609.7147,N,00111.2910,W,1,05,0.0,6.7,M,0.0,M,0.0,0158*49
$GPGGA,084423,4609.7140,N,00111.2844,W,1,05,0.0,6.7,M,0.0,M,0.0,0158*4d
$GPGGA,084427,4609.7147,N,00111.2775,W,1,06,0.0,6.9,M,0.0,M,0.0,0157*41
$GPGGA,084428,4609.7149,N,00111.2758,W,1,05,0.0,6.9,M,0.0,M,0.0,0157*4c
$GPGGA,084433,4609.7151,N,00111.2656,W,1,05,0.0,7.0,M,0.0,M,0.0,0158*47
$GPGGA,084437,4609.7158,N,00111.2585,W,1,05,0.0,7.2,M,0.0,M,0.0,0157*4a
$GPGGA,084440,4609.7163,N,00111.2518,W,1,05,0.0,7.3,M,0.0,M,0.0,0158*48
$GPGGA,084443,4609.7163,N,00111.2458,W,1,05,0.0,7.3,M,0.0,M,0.0,0157*41
$GPGGA,084448,4609.7179,N,00111.2375,W,1,07,0.0,7.4,M,0.0,M,0.0,0157*4c
$GPGGA,084450,4609.7183,N,00111.2339,W,1,06,0.0,7.5,M,0.0,M,0.0,0157*48
$GPGGA,084456,4609.7206,N,00111.2209,W,1,07,0.0,7.6,M,0.0,M,0.0,0159*4e
$GPGGA,084458,4609.7220,N,00111.2168,W,1,05,0.0,7.8,M,0.0,M,0.0,0159*4c
$GPGGA,084503,4609.7286,N,00111.2123,W,1,05,0.0,8.3,M,0.0,M,0.0,0159*44
$GPGGA,084509,4609.7369,N,00111.2099,W,1,04,0.0,8.9,M,0.0,M,0.0,0159*45
$GPGGA,084516,4609.7460,N,00111.2074,W,1,05,0.0,9.7,M,0.0,M,0.0,0159*48
$GPGGA,084522,4609.7543,N,00111.2051,W,1,05,0.0,10.2,M,0.0,M,0.0,0161*7e
$GPGGA,084527,4609.7618,N,00111.2036,W,1,05,0.0,10.5,M,0.0,M,0.0,0161*70
$GPGGA,084533,4609.7696,N,00111.2010,W,1,05,0.0,10.8,M,0.0,M,0.0,0161*7a
$GPGGA,084540,4609.7778,N,00111.1975,W,1,05,0.0,11.1,M,0.0,M,0.0,0162*7d
$GPGGA,084545,4609.7842,N,00111.1950,W,1,05,0.0,11.4,M,0.0,M,0.0,0162*7c
$GPGGA,084550,4609.7904,N,00111.1921,W,1,03,0.0,11.6,M,0.0,M,0.0,0163*78
$GPGGA,084556,4609.7980,N,00111.1888,W,1,05,0.0,11.9,M,0.0,M,0.0,0165*7f
$GPGGA,084602,4609.8048,N,00111.1857,W,1,05,0.0,12.2,M,0.0,M,0.0,0165*75
$GPGGA,084606,4609.8094,N,00111.1834,W,1,05,0.0,12.4,M,0.0,M,0.0,0164*72
$GPGGA,084611,4609.8158,N,00111.1805,W,1,05,0.0,12.6,M,0.0,M,0.0,0164*75
$GPGGA,084617,4609.8232,N,00111.1776,W,1,05,0.0,12.9,M,0.0,M,0.0,0165*79
$GPGGA,084623,4609.8302,N,00111.1748,W,1,04,0.0,13.2,M,0.0,M,0.0,0165*7a
$GPGGA,084628,4609.8367,N,00111.1713,W,1,05,0.0,13.5,M,0.0,M,0.0,0164*7b
$GPGGA,084634,4609.8447,N,00111.1673,W,1,07,0.0,13.8,M,0.0,M,0.0,0163*7c
$GPGGA,084640,4609.8524,N,00111.1639,W,1,05,0.0,14.0,M,0.0,M,0.0,0162*79
$GPGGA,084646,4609.8602,N,00111.1608,W,1,05,0.0,14.2,M,0.0,M,0.0,0160*7a
$GPGGA,084651,4609.8662,N,00111.1582,W,1,05,0.0,14.3,M,0.0,M,0.0,0161*7b
$GPGGA,084656,4609.8719,N,00111.1549,W,1,05,0.0,14.4,M,0.0,M,0.0,0161*71
$GPGGA,084702,4609.8792,N,00111.1517,W,1,05,0.0,14.6,M,0.0,M,0.0,0161*7b
$GPGGA,084706,4609.8827,N,00111.1498,W,1,05,0.0,14.7,M,0.0,M,0.0,0162*7a
$GPGGA,084711,4609.8891,N,00111.1466,W,1,05,0.0,14.8,M,0.0,M,0.0,0165*78
$GPGGA,084715,4609.8930,N,00111.1452,W,1,05,0.0,14.9,M,0.0,M,0.0,0165*70
$GPGGA,084720,4609.9012,N,00111.1426,W,1,05,0.0,15.0,M,0.0,M,0.0,0165*75
$GPGGA,084726,4609.9081,N,00111.1400,W,1,06,0.0,14.9,M,0.0,M,0.0,0166*75
$GPGGA,084731,4609.9129,N,00111.1440,W,1,05,0.0,14.8,M,0.0,M,0.0,0165*75
$GPGGA,084737,4609.9152,N,00111.1536,W,1,05,0.0,14.7,M,0.0,M,0.0,0165*70
$GPGGA,084741,4609.9163,N,00111.1606,W,1,05,0.0,14.7,M,0.0,M,0.0,0165*73
$GPGGA,084746,4609.9177,N,00111.1682,W,1,04,0.0,14.6,M,0.0,M,0.0,0164*7c
$GPGGA,084751,4609.9202,N,00111.1768,W,1,05,0.0,14.6,M,0.0,M,0.0,0165*7e
$GPGGA,084756,4609.9257,N,00111.1821,W,1,05,0.0,14.5,M,0.0,M,0.0,0165*78
$GPGGA,084800,4609.9305,N,00111.1806,W,1,05,0.0,14.4,M,0.0,M,0.0,0165*76
$GPGGA,084806,4609.9383,N,00111.1773,W,1,05,0.0,14.2,M,0.0,M,0.0,0163*73
$GPGGA,084811,4609.9447,N,00111.1749,W,1,05,0.0,14.1,M,0.0,M,0.0,0163*70
$GPGGA,084818,4609.9538,N,00111.1705,W,1,05,0.0,14.0,M,0.0,M,0.0,0163*79
$GPGGA,084822,4609.9596,N,00111.1698,W,1,05,0.0,14.1,M,0.0,M,0.0,0164*77
$GPGGA,084826,4609.9651,N,00111.1681,W,1,05,0.0,14.2,M,0.0,M,0.0,0165*71
$GPGGA,084831,4609.9717,N,00111.1646,W,1,05,0.0,14.3,M,0.0,M,0.0,0164*7f
$GPGGA,084833,4609.9744,N,00111.1620,W,1,05,0.0,14.4,M,0.0,M,0.0,0164*7c
$GPGGA,084837,4609.9760,N,00111.1530,W,1,05,0.0,14.5,M,0.0,M,0.0,0164*7d
$GPGGA,084844,4609.9740,N,00111.1384,W,1,05,0.0,14.6,M,0.0,M,0.0,0163*76
$GPGGA,084850,4609.9726,N,00111.1266,W,1,05,0.0,14.7,M,0.0,M,0.0,0162*7e
$GPGGA,084856,4609.9715,N,00111.1147,W,1,05,0.0,14.8,M,0.0,M,0.0,0160*75
$GPGGA,084901,4609.9694,N,00111.1052,W,1,05,0.0,14.9,M,0.0,M,0.0,0160*7a
$GPGGA,084905,4609.9673,N,00111.0972,W,1,05,0.0,15.1,M,0.0,M,0.0,0161*75
$GPGGA,084911,4609.9671,N,00111.0854,W,1,05,0.0,15.6,M,0.0,M,0.0,0161*70
$GPGGA,084916,4609.9657,N,00111.0759,W,1,05,0.0,15.9,M,0.0,M,0.0,0163*7c
$GPGGA,084920,4609.9657,N,00111.0673,W,1,05,0.0,16.3,M,0.0,M,0.0,0163*79
$GPGGA,084927,4609.9625,N,00111.0543,W,1,07,0.0,16.6,M,0.0,M,0.0,0162*7d
$GPGGA,084931,4609.9612,N,00111.0470,W,1,06,0.0,16.7,M,0.0,M,0.0,0162*7f
$GPGGA,084935,4609.9612,N,00111.0389,W,1,05,0.0,16.8,M,0.0,M,0.0,0162*76
$GPGGA,084940,4609.9598,N,00111.0292,W,1,03,0.0,16.8,M,0.0,M,0.0,0161*7b
$GPGGA,084946,4609.9584,N,00111.0181,W,1,05,0.0,16.9,M,0.0,M,0.0,0159*7d
$GPGGA,084950,4609.9577,N,00111.0100,W,1,05,0.0,17.0,M,0.0,M,0.0,0159*77
$GPGGA,084956,4609.9582,N,00110.9986,W,1,05,0.0,17.2,M,0.0,M,0.0,0160*7d
$GPGGA,084959,4609.9607,N,00110.9955,W,1,05,0.0,17.4,M,0.0,M,0.0,0159*7e
$GPGGA,085006,4609.9692,N,00110.9942,W,1,05,0.0,17.6,M,0.0,M,0.0,0159*74
$GPGGA,085012,4609.9770,N,00110.9952,W,1,05,0.0,17.7,M,0.0,M,0.0,0157*72
$GPGGA,085017,4609.9838,N,00110.9949,W,1,05,0.0,17.8,M,0.0,M,0.0,0157*71
$GPGGA,085022,4609.9914,N,00110.9951,W,1,05,0.0,17.9,M,0.0,M,0.0,0157*70
$GPGGA,085026,4609.9971,N,00110.9942,W,1,05,0.0,18.1,M,0.0,M,0.0,0157*72
$GPGGA,085031,4610.0037,N,00110.9929,W,1,04,0.0,18.1,M,0.0,M,0.0,0157*72
$GPGGA,085034,4610.0081,N,00110.9921,W,1,05,0.0,18.0,M,0.0,M,0.0,0157*72
$GPGGA,085041,4610.0175,N,00110.9914,W,1,04,0.0,17.9,M,0.0,M,0.0,0159*75
$GPGGA,085044,4610.0214,N,00110.9909,W,1,03,0.0,17.8,M,0.0,M,0.0,0159*7e
$GPGGA,085050,4610.0291,N,00110.9908,W,1,05,0.0,17.7,M,0.0,M,0.0,0157*70
$GPGGA,085055,4610.0351,N,00110.9907,W,1,05,0.0,17.6,M,0.0,M,0.0,0155*74
$GPGGA,085100,4610.0417,N,00110.9890,W,1,05,0.0,17.6,M,0.0,M,0.0,0155*7f
$GPGGA,085105,4610.0493,N,00110.9866,W,1,05,0.0,17.5,M,0.0,M,0.0,0154*7d
$GPGGA,085109,4610.0548,N,00110.9859,W,1,05,0.0,17.4,M,0.0,M,0.0,0154*7b
$GPGGA,085114,4610.0628,N,00110.9821,W,1,03,0.0,17.2,M,0.0,M,0.0,0155*7c
$GPGGA,085119,4610.0662,N,00110.9717,W,1,05,0.0,17.3,M,0.0,M,0.0,0156*71
$GPGGA,085122,4610.0660,N,00110.9654,W,1,05,0.0,17.4,M,0.0,M,0.0,0155*79
$GPGGA,085129,4610.0646,N,00110.9510,W,1,05,0.0,17.8,M,0.0,M,0.0,0154*78
$GPGGA,085130,4610.0648,N,00110.9496,W,1,05,0.0,17.8,M,0.0,M,0.0,0154*71
$GPGGA,085133,4610.0648,N,00110.9432,W,1,05,0.0,17.5,M,0.0,M,0.0,0154*71
$GPGGA,085138,4610.0632,N,00110.9332,W,1,05,0.0,17.3,M,0.0,M,0.0,0154*76
$GPGGA,085144,4610.0630,N,00110.9230,W,1,05,0.0,16.9,M,0.0,M,0.0,0154*77
$GPGGA,085148,4610.0628,N,00110.9147,W,1,05,0.0,16.6,M,0.0,M,0.0,0155*7f
$GPGGA,085154,4610.0619,N,00110.9041,W,1,05,0.0,16.2,M,0.0,M,0.0,0155*73
$GPGGA,085158,4610.0610,N,00110.8974,W,1,07,0.0,16.2,M,0.0,M,0.0,0154*7b
$GPGGA,085203,4610.0596,N,00110.8887,W,1,04,0.0,16.6,M,0.0,M,0.0,0156*73
$GPGGA,085204,4610.0594,N,00110.8865,W,1,05,0.0,16.7,M,0.0,M,0.0,0156*7a
$GPGGA,085210,4610.0582,N,00110.8744,W,1,05,0.0,17.3,M,0.0,M,0.0,0157*70
$GPGGA,085212,4610.0580,N,00110.8705,W,1,05,0.0,17.4,M,0.0,M,0.0,0157*72
$GPGGA,085218,4610.0557,N,00110.8589,W,1,05,0.0,18.1,M,0.0,M,0.0,0157*7e
$GPGGA,085222,4610.0541,N,00110.8504,W,1,05,0.0,18.6,M,0.0,M,0.0,0157*72
$GPGGA,085228,4610.0523,N,00110.8378,W,1,04,0.0,19.0,M,0.0,M,0.0,0158*78
$GPGGA,085233,4610.0520,N,00110.8269,W,1,07,0.0,19.3,M,0.0,M,0.0,0158*70
$GPGGA,085239,4610.0527,N,00110.8143,W,1,05,0.0,19.4,M,0.0,M,0.0,0159*72
$GPGGA,085245,4610.0518,N,00110.8028,W,1,05,0.0,19.8,M,0.0,M,0.0,0157*7b
$GPGGA,085252,4610.0491,N,00110.7895,W,1,05,0.0,20.1,M,0.0,M,0.0,0157*7f
$GPGGA,085256,4610.0470,N,00110.7821,W,1,05,0.0,20.5,M,0.0,M,0.0,0156*7e
$GPGGA,085259,4610.0465,N,00110.7765,W,1,05,0.0,20.5,M,0.0,M,0.0,0156*7a
$GPGGA,085301,4610.0465,N,00110.7723,W,1,05,0.0,20.6,M,0.0,M,0.0,0156*77
$GPGGA,085306,4610.0452,N,00110.7637,W,1,03,0.0,20.8,M,0.0,M,0.0,0156*78
$GPGGA,085311,4610.0440,N,00110.7538,W,1,05,0.0,21.1,M,0.0,M,0.0,0158*71
$GPGGA,085315,4610.0438,N,00110.7463,W,1,05,0.0,21.1,M,0.0,M,0.0,0159*74
$GPGGA,085319,4610.0447,N,00110.7380,W,1,05,0.0,21.0,M,0.0,M,0.0,0158*7a
$GPGGA,085326,4610.0426,N,00110.7240,W,1,05,0.0,21.4,M,0.0,M,0.0,0158*78
$GPGGA,085329,4610.0413,N,00110.7177,W,1,05,0.0,21.5,M,0.0,M,0.0,0159*76
$GPGGA,085335,4610.0397,N,00110.7059,W,1,05,0.0,21.6,M,0.0,M,0.0,0159*7e
$GPGGA,085339,4610.0394,N,00110.6983,W,1,05,0.0,21.7,M,0.0,M,0.0,0160*75
$GPGGA,085342,4610.0399,N,00110.6925,W,1,07,0.0,21.7,M,0.0,M,0.0,0160*7a
$GPGGA,085345,4610.0390,N,00110.6875,W,1,05,0.0,21.8,M,0.0,M,0.0,0160*7d
$GPGGA,085349,4610.0381,N,00110.6795,W,1,05,0.0,21.9,M,0.0,M,0.0,0159*7b
$GPGGA,085353,4610.0392,N,00110.6709,W,1,05,0.0,22.0,M,0.0,M,0.0,0159*7d
$GPGGA,085357,4610.0383,N,00110.6639,W,1,05,0.0,22.1,M,0.0,M,0.0,0160*70
$GPGGA,085359,4610.0374,N,00110.6605,W,1,07,0.0,22.1,M,0.0,M,0.0,0160*7b
$GPGGA,085406,4610.0376,N,00110.6480,W,1,05,0.0,22.2,M,0.0,M,0.0,0159*70
$GPGGA,085411,4610.0401,N,00110.6390,W,1,03,0.0,21.9,M,0.0,M,0.0,0160*73
$GPGGA,085417,4610.0429,N,00110.6285,W,1,05,0.0,21.7,M,0.0,M,0.0,0162*70
$GPGGA,085422,4610.0461,N,00110.6209,W,1,05,0.0,21.5,M,0.0,M,0.0,0160*7e
$GPGGA,085427,4610.0486,N,00110.6115,W,1,05,0.0,21.2,M,0.0,M,0.0,0158*70
$GPGGA,085433,4610.0518,N,00110.6008,W,1,07,0.0,21.1,M,0.0,M,0.0,0159*7e
$GPGGA,085438,4610.0552,N,00110.5917,W,1,05,0.0,21.3,M,0.0,M,0.0,0158*7e
$GPGGA,085443,4610.0582,N,00110.5818,W,1,07,0.0,21.6,M,0.0,M,0.0,0160*7d
$GPGGA,085447,4610.0610,N,00110.5748,W,1,05,0.0,21.7,M,0.0,M,0.0,0159*72
$GPGGA,085453,4610.0642,N,00110.5664,W,1,05,0.0,21.9,M,0.0,M,0.0,0158*70
$GPGGA,085458,4610.0678,N,00110.5567,W,1,05,0.0,22.0,M,0.0,M,0.0,0158*78
$GPGGA,085501,4610.0694,N,00110.5510,W,1,05,0.0,22.0,M,0.0,M,0.0,0157*78
$GPGGA,085507,4610.0713,N,00110.5405,W,1,05,0.0,22.0,M,0.0,M,0.0,0156*74
$GPGGA,085514,4610.0758,N,00110.5302,W,1,06,0.0,22.0,M,0.0,M,0.0,0157*7b
$GPGGA,085520,4610.0804,N,00110.5190,W,1,05,0.0,22.1,M,0.0,M,0.0,0159*7f
$GPGGA,085525,4610.0816,N,00110.5089,W,1,05,0.0,22.2,M,0.0,M,0.0,0157*7d
$GPGGA,085530,4610.0838,N,00110.4998,W,1,04,0.0,22.4,M,0.0,M,0.0,0158*75
$GPGGA,085535,4610.0859,N,00110.4908,W,1,03,0.0,22.3,M,0.0,M,0.0,0159*7f
$GPGGA,085537,4610.0873,N,00110.4874,W,1,05,0.0,22.2,M,0.0,M,0.0,0159*78
$GPGGA,085541,4610.0891,N,00110.4796,W,1,05,0.0,22.2,M,0.0,M,0.0,0158*77
$GPGGA,085547,4610.0944,N,00110.4697,W,1,05,0.0,22.2,M,0.0,M,0.0,0159*79
$GPGGA,085551,4610.0974,N,00110.4628,W,1,07,0.0,22.2,M,0.0,M,0.0,0158*7a
$GPGGA,085556,4610.1003,N,00110.4542,W,1,05,0.0,22.1,M,0.0,M,0.0,0156*75
$GPGGA,085558,4610.1017,N,00110.4505,W,1,05,0.0,22.0,M,0.0,M,0.0,0157*7d
$GPGGA,085603,4610.1031,N,00110.4416,W,1,05,0.0,22.2,M,0.0,M,0.0,0156*74
$GPGGA,085609,4610.1056,N,00110.4303,W,1,05,0.0,22.4,M,0.0,M,0.0,0156*7a
$GPGGA,085612,4610.1063,N,00110.4250,W,1,05,0.0,22.5,M,0.0,M,0.0,0157*71
$GPGGA,085616,4610.1090,N,00110.4187,W,1,05,0.0,22.6,M,0.0,M,0.0,0157*73
$GPGGA,085622,4610.1127,N,00110.4072,W,1,05,0.0,22.7,M,0.0,M,0.0,0157*73
$GPGGA,085627,4610.1163,N,00110.3998,W,1,05,0.0,22.7,M,0.0,M,0.0,0157*7c
$GPGGA,085631,4610.1184,N,00110.3939,W,1,05,0.0,22.6,M,0.0,M,0.0,0157*78
$GPGGA,085635,4610.1209,N,00110.3870,W,1,05,0.0,22.4,M,0.0,M,0.0,0157*74
$GPGGA,085642,4610.1234,N,00110.3735,W,1,05,0.0,22.2,M,0.0,M,0.0,0157*72
$GPGGA,085647,4610.1266,N,00110.3620,W,1,05,0.0,22.1,M,0.0,M,0.0,0158*79
$GPGGA,085651,4610.1296,N,00110.3536,W,1,05,0.0,22.0,M,0.0,M,0.0,0158*74
$GPGGA,085655,4610.1349,N,00110.3458,W,1,04,0.0,21.9,M,0.0,M,0.0,0159*70
$GPGGA,085700,4610.1392,N,00110.3355,W,1,05,0.0,21.7,M,0.0,M,0.0,0159*72
$GPGGA,085706,4610.1434,N,00110.3237,W,1,05,0.0,21.5,M,0.0,M,0.0,0158*79
$GPGGA,085711,4610.1468,N,00110.3143,W,1,04,0.0,21.3,M,0.0,M,0.0,0158*71
$GPGGA,085716,4610.1491,N,00110.3054,W,1,06,0.0,21.1,M,0.0,M,0.0,0157*78
$GPGGA,085722,4610.1532,N,00110.2952,W,1,05,0.0,20.8,M,0.0,M,0.0,0157*72
$GPGGA,085727,4610.1566,N,00110.2864,W,1,03,0.0,20.5,M,0.0,M,0.0,0157*79
$GPGGA,085733,4610.1596,N,00110.2757,W,1,05,0.0,20.0,M,0.0,M,0.0,0159*71
$GPGGA,085738,4610.1621,N,00110.2664,W,1,05,0.0,19.7,M,0.0,M,0.0,0157*77
$GPGGA,085743,4610.1644,N,00110.2574,W,1,05,0.0,19.3,M,0.0,M,0.0,0158*71
$GPGGA,085750,4610.1681,N,00110.2449,W,1,05,0.0,18.9,M,0.0,M,0.0,0155*73
$GPGGA,085755,4610.1711,N,00110.2356,W,1,05,0.0,18.8,M,0.0,M,0.0,0155*76
$GPGGA,085801,4610.1743,N,00110.2249,W,1,05,0.0,18.7,M,0.0,M,0.0,0156*7c
$GPGGA,085806,4610.1763,N,00110.2151,W,1,07,0.0,18.7,M,0.0,M,0.0,0156*71
$GPGGA,085811,4610.1791,N,00110.2053,W,1,04,0.0,18.6,M,0.0,M,0.0,0156*7b
$GPGGA,085813,4610.1802,N,00110.2017,W,1,05,0.0,18.6,M,0.0,M,0.0,0155*7e
$GPGGA,085818,4610.1816,N,00110.1923,W,1,05,0.0,18.7,M,0.0,M,0.0,0154*7d
$GPGGA,085823,4610.1846,N,00110.1835,W,1,04,0.0,18.8,M,0.0,M,0.0,0153*7f
$GPGGA,085828,4610.1878,N,00110.1750,W,1,05,0.0,18.9,M,0.0,M,0.0,0152*74
$GPGGA,085834,4610.1928,N,00110.1663,W,1,05,0.0,19.0,M,0.0,M,0.0,0152*74
$GPGGA,085841,4610.1974,N,00110.1554,W,1,05,0.0,19.0,M,0.0,M,0.0,0155*7f
$GPGGA,085847,4610.2001,N,00110.1455,W,1,05,0.0,18.7,M,0.0,M,0.0,0154*76
$GPGGA,085853,4610.2054,N,00110.1353,W,1,05,0.0,17.9,M,0.0,M,0.0,0153*74
$GPGGA,085859,4610.2088,N,00110.1254,W,1,06,0.0,17.2,M,0.0,M,0.0,0153*71
$GPGGA,085904,4610.2129,N,00110.1165,W,1,05,0.0,16.6,M,0.0,M,0.0,0152*74
$GPGGA,085908,4610.2150,N,00110.1103,W,1,05,0.0,16.2,M,0.0,M,0.0,0153*73
$GPGGA,085913,4610.2187,N,00110.1015,W,1,05,0.0,15.7,M,0.0,M,0.0,0153*73
$GPGGA,085918,4610.2212,N,00110.0927,W,1,05,0.0,15.4,M,0.0,M,0.0,0154*7a
$GPGGA,085923,4610.2246,N,00110.0841,W,1,05,0.0,15.2,M,0.0,M,0.0,0154*74
$GPGGA,085924,4610.2255,N,00110.0826,W,1,05,0.0,15.1,M,0.0,M,0.0,0154*73
$GPGGA,085930,4610.2287,N,00110.0714,W,1,05,0.0,14.9,M,0.0,M,0.0,0154*7e
$GPGGA,085935,4610.2317,N,00110.0621,W,1,05,0.0,14.6,M,0.0,M,0.0,0154*7b
$GPGGA,085941,4610.2354,N,00110.0512,W,1,05,0.0,14.3,M,0.0,M,0.0,0154*79
$GPGGA,085942,4610.2361,N,00110.0496,W,1,05,0.0,14.3,M,0.0,M,0.0,0154*71
$GPGGA,085946,4610.2379,N,00110.0423,W,1,05,0.0,14.2,M,0.0,M,0.0,0154*73
$GPGGA,085948,4610.2390,N,00110.0386,W,1,05,0.0,14.2,M,0.0,M,0.0,0154*72
$GPGGA,085953,4610.2409,N,00110.0293,W,1,06,0.0,14.2,M,0.0,M,0.0,0155*78
$GPGGA,085957,4610.2422,N,00110.0224,W,1,03,0.0,14.2,M,0.0,M,0.0,0156*7f
$GPGGA,090003,4610.2445,N,00110.0123,W,1,05,0.0,14.1,M,0.0,M,0.0,0157*72
$GPGGA,090004,4610.2450,N,00110.0107,W,1,05,0.0,14.1,M,0.0,M,0.0,0157*77
$GPGGA,090011,4610.2482,N,00109.9990,W,1,05,0.0,14.0,M,0.0,M,0.0,0155*78
$GPGGA,090017,4610.2509,N,00109.9884,W,1,05,0.0,14.0,M,0.0,M,0.0,0155*78
$GPGGA,090022,4610.2544,N,00109.9797,W,1,07,0.0,13.9,M,0.0,M,0.0,0155*76
$GPGGA,090027,4610.2585,N,00109.9713,W,1,05,0.0,13.8,M,0.0,M,0.0,0155*71
$GPGGA,090033,4610.2628,N,00109.9615,W,1,06,0.0,13.7,M,0.0,M,0.0,0154*7a
$GPGGA,090039,4610.2683,N,00109.9513,W,1,05,0.0,13.6,M,0.0,M,0.0,0154*76
$GPGGA,090043,4610.2718,N,00109.9448,W,1,05,0.0,13.6,M,0.0,M,0.0,0155*76
$GPGGA,090048,4610.2752,N,00109.9367,W,1,05,0.0,13.5,M,0.0,M,0.0,0154*7b
$GPGGA,090052,4610.2786,N,00109.9302,W,1,05,0.0,13.4,M,0.0,M,0.0,0154*7b
$GPGGA,090058,4610.2834,N,00109.9203,W,1,05,0.0,13.3,M,0.0,M,0.0,0154*70
$GPGGA,090104,4610.2885,N,00109.9108,W,1,05,0.0,13.2,M,0.0,M,0.0,0153*7c
$GPGGA,090108,4610.2919,N,00109.9042,W,1,05,0.0,13.2,M,0.0,M,0.0,0154*7c
$GPGGA,090113,4610.2956,N,00109.8953,W,1,05,0.0,13.1,M,0.0,M,0.0,0155*77
$GPGGA,090118,4610.2997,N,00109.8868,W,1,05,0.0,13.0,M,0.0,M,0.0,0156*7a
$GPGGA,090123,4610.3017,N,00109.8771,W,1,05,0.0,12.9,M,0.0,M,0.0,0155*7e
$GPGGA,090124,4610.3015,N,00109.8750,W,1,05,0.0,12.9,M,0.0,M,0.0,0155*78
$GPGGA,090129,4610.2960,N,00109.8688,W,1,05,0.0,13.1,M,0.0,M,0.0,0154*73
$GPGGA,090134,4610.2887,N,00109.8665,W,1,05,0.0,13.2,M,0.0,M,0.0,0155*76
$GPGGA,090138,4610.2832,N,00109.8648,W,1,05,0.0,13.3,M,0.0,M,0.0,0155*7a
$GPGGA,090144,4610.2750,N,00109.8605,W,1,05,0.0,13.5,M,0.0,M,0.0,0156*76
$GPGGA,090150,4610.2667,N,00109.8574,W,1,05,0.0,13.7,M,0.0,M,0.0,0156*71
$GPGGA,090154,4610.2615,N,00109.8542,W,1,05,0.0,13.8,M,0.0,M,0.0,0156*7a
$GPGGA,090200,4610.2532,N,00109.8514,W,1,05,0.0,13.9,M,0.0,M,0.0,0155*7f
$GPGGA,090206,4610.2454,N,00109.8491,W,1,05,0.0,14.1,M,0.0,M,0.0,0155*7b
$GPGGA,090211,4610.2388,N,00109.8474,W,1,06,0.0,14.2,M,0.0,M,0.0,0157*72
$GPGGA,090217,4610.2312,N,00109.8447,W,1,05,0.0,14.4,M,0.0,M,0.0,0157*72
$GPGGA,090221,4610.2260,N,00109.8415,W,1,05,0.0,14.5,M,0.0,M,0.0,0158*7a
$GPGGA,090225,4610.2209,N,00109.8391,W,1,05,0.0,14.6,M,0.0,M,0.0,0159*78
$GPGGA,090226,4610.2193,N,00109.8393,W,1,05,0.0,14.6,M,0.0,M,0.0,0159*79
$GPGGA,090232,4610.2122,N,00109.8353,W,1,05,0.0,14.8,M,0.0,M,0.0,0159*74
$GPGGA,090234,4610.2097,N,00109.8343,W,1,05,0.0,14.8,M,0.0,M,0.0,0159*7c
$GPGGA,090238,4610.2047,N,00109.8338,W,1,05,0.0,14.9,M,0.0,M,0.0,0160*7a
$GPGGA,090244,4610.1960,N,00109.8296,W,1,05,0.0,15.0,M,0.0,M,0.0,0163*70
$GPGGA,090248,4610.1910,N,00109.8265,W,1,05,0.0,15.0,M,0.0,M,0.0,0162*76
$GPGGA,090251,4610.1880,N,00109.8248,W,1,06,0.0,15.0,M,0.0,M,0.0,0161*79
$GPGGA,090255,4610.1834,N,00109.8217,W,1,05,0.0,15.0,M,0.0,M,0.0,0160*7a
$GPGGA,090301,4610.1745,N,00109.8191,W,1,05,0.0,15.0,M,0.0,M,0.0,0159*74
$GPGGA,090305,4610.1694,N,00109.8192,W,1,05,0.0,15.0,M,0.0,M,0.0,0160*74
$GPGGA,090309,4610.1646,N,00109.8189,W,1,05,0.0,15.0,M,0.0,M,0.0,0161*7c
$GPGGA,090314,4610.1582,N,00109.8194,W,1,06,0.0,15.0,M,0.0,M,0.0,0160*75
$GPGGA,090320,4610.1507,N,00109.8193,W,1,05,0.0,15.0,M,0.0,M,0.0,0159*71
$GPGGA,090325,4610.1431,N,00109.8221,W,1,03,0.0,14.8,M,0.0,M,0.0,0159*75
$GPGGA,090331,4610.1335,N,00109.8223,W,1,05,0.0,14.5,M,0.0,M,0.0,0159*7a
$GPGGA,090335,4610.1271,N,00109.8213,W,1,05,0.0,14.3,M,0.0,M,0.0,0158*7b
$GPGGA,090340,4610.1191,N,00109.8211,W,1,05,0.0,14.0,M,0.0,M,0.0,0158*75
$GPGGA,090342,4610.1161,N,00109.8213,W,1,05,0.0,13.9,M,0.0,M,0.0,0158*74
$GPGGA,090348,4610.1081,N,00109.8240,W,1,03,0.0,13.7,M,0.0,M,0.0,0157*70
$GPGGA,090353,4610.1019,N,00109.8257,W,1,05,0.0,13.6,M,0.0,M,0.0,0156*7b
$GPGGA,090400,4610.0925,N,00109.8271,W,1,05,0.0,13.9,M,0.0,M,0.0,0157*77
$GPGGA,090404,4610.0871,N,00109.8267,W,1,05,0.0,14.1,M,0.0,M,0.0,0157*7b
$GPGGA,090410,4610.0788,N,00109.8279,W,1,05,0.0,14.5,M,0.0,M,0.0,0156*7d
$GPGGA,090415,4610.0719,N,00109.8300,W,1,05,0.0,14.8,M,0.0,M,0.0,0158*7c
$GPGGA,090419,4610.0660,N,00109.8299,W,1,05,0.0,15.1,M,0.0,M,0.0,0157*79
$GPGGA,090425,4610.0564,N,00109.8295,W,1,05,0.0,15.5,M,0.0,M,0.0,0158*76
$GPGGA,090430,4610.0493,N,00109.8291,W,1,05,0.0,15.7,M,0.0,M,0.0,0156*73
$GPGGA,090435,4610.0429,N,00109.8291,W,1,05,0.0,15.8,M,0.0,M,0.0,0156*78
$GPGGA,090439,4610.0383,N,00109.8300,W,1,05,0.0,15.8,M,0.0,M,0.0,0156*7a
$GPGGA,090442,4610.0349,N,00109.8324,W,1,05,0.0,16.0,M,0.0,M,0.0,0156*7d
$GPGGA,090448,4610.0278,N,00109.8356,W,1,05,0.0,16.3,M,0.0,M,0.0,0156*72
$GPGGA,090453,4610.0204,N,00109.8376,W,1,06,0.0,16.6,M,0.0,M,0.0,0156*77
$GPGGA,090458,4610.0129,N,00109.8391,W,1,05,0.0,16.8,M,0.0,M,0.0,0156*74
$GPGGA,090500,4610.0099,N,00109.8394,W,1,05,0.0,16.8,M,0.0,M,0.0,0156*77
$GPGGA,090504,4610.0065,N,00109.8399,W,1,05,0.0,16.9,M,0.0,M,0.0,0156*7c
$GPGGA,090507,4610.0024,N,00109.8402,W,1,05,0.0,17.0,M,0.0,M,0.0,0156*77
$GPGGA,090512,4609.9964,N,00109.8403,W,1,07,0.0,16.8,M,0.0,M,0.0,0156*75
$GPGGA,090513,4609.9955,N,00109.8404,W,1,05,0.0,16.7,M,0.0,M,0.0,0157*7d
$GPGGA,090520,4609.9877,N,00109.8439,W,1,05,0.0,16.5,M,0.0,M,0.0,0157*70
$GPGGA,090525,4609.9799,N,00109.8492,W,1,05,0.0,16.3,M,0.0,M,0.0,0157*7d
$GPGGA,090529,4609.9754,N,00109.8517,W,1,06,0.0,16.0,M,0.0,M,0.0,0157*7c
$GPGGA,090534,4609.9683,N,00109.8548,W,1,07,0.0,15.5,M,0.0,M,0.0,0158*79
$GPGGA,090539,4609.9614,N,00109.8582,W,1,05,0.0,15.0,M,0.0,M,0.0,0158*7b
$GPGGA,090546,4609.9518,N,00109.8607,W,1,05,0.0,14.3,M,0.0,M,0.0,0157*7f
$GPGGA,090551,4609.9458,N,00109.8630,W,1,05,0.0,14.1,M,0.0,M,0.0,0158*75
$GPGGA,090556,4609.9390,N,00109.8648,W,1,05,0.0,13.9,M,0.0,M,0.0,0156*7f
$GPGGA,090559,4609.9332,N,00109.8651,W,1,05,0.0,13.6,M,0.0,M,0.0,0157*7e
$GPGGA,090600,4609.9319,N,00109.8655,W,1,05,0.0,13.6,M,0.0,M,0.0,0157*7c
$GPGGA,090606,4609.9261,N,00109.8648,W,1,05,0.0,13.3,M,0.0,M,0.0,0156*7c
$GPGGA,090611,4609.9234,N,00109.8664,W,1,05,0.0,13.3,M,0.0,M,0.0,0156*74
$GPGGA,090613,4609.9223,N,00109.8666,W,1,05,0.0,13.2,M,0.0,M,0.0,0157*72
$GPGGA,090623,4609.9181,N,00109.8678,W,1,05,0.0,13.1,M,0.0,M,0.0,0153*72
$GPGGA,090628,4609.9179,N,00109.8678,W,1,05,0.0,13.1,M,0.0,M,0.0,0148*74
$GPGGA,090634,4609.9147,N,00109.8690,W,1,05,0.0,13.0,M,0.0,M,0.0,0145*7e
$GPGGA,090639,4609.9115,N,00109.8700,W,1,03,0.0,12.9,M,0.0,M,0.0,0144*73
$GPGGA,090644,4609.9081,N,00109.8705,W,1,05,0.0,12.7,M,0.0,M,0.0,0137*7c
$GPGGA,090645,4609.9074,N,00109.8706,W,1,05,0.0,12.7,M,0.0,M,0.0,0136*75
$GPGGA,090647,4609.9065,N,00109.8707,W,1,05,0.0,12.7,M,0.0,M,0.0,0136*76
$GPGGA,090653,4609.9049,N,00109.8711,W,1,05,0.0,12.6,M,0.0,M,0.0,0133*7e
$GPGGA,090659,4609.9019,N,00109.8746,W,1,07,0.0,12.6,M,0.0,M,0.0,0129*7a
$GPGGA,090705,4609.8978,N,00109.8767,W,1,05,0.0,12.5,M,0.0,M,0.0,0129*7f
$GPGGA,090707,4609.8964,N,00109.8775,W,1,05,0.0,12.4,M,0.0,M,0.0,0128*73
$GPGGA,090716,4609.8900,N,00109.8789,W,1,05,0.0,12.3,M,0.0,M,0.0,0126*7b
$GPGGA,090717,4609.8893,N,00109.8790,W,1,05,0.0,12.2,M,0.0,M,0.0,0125*7b
$GPGGA,090724,4609.8824,N,00109.8801,W,1,04,0.0,12.0,M,0.0,M,0.0,0124*72
$GPGGA,090726,4609.8797,N,00109.8807,W,1,05,0.0,12.0,M,0.0,M,0.0,0126*72
